$GPRMC,170849.10,A,5746.8370803,N,01246.2486081,E,12.49,139.28,040716,0.0,E,D*0E
$GPGGA,170849.10,5746.8370803,N,01246.2486081,E,4,07,1.0,195.801,M,35.049,M,2.3,*4A
$GPRMC,170849.30,A,5746.8371098,N,01246.2491217,E,8.14,80.50,040716,0.0,E,D*03
$GPGGA,170849.30,5746.8371098,N,01246.2491217,E,4,07,1.0,195.811,M,35.049,M,2.5,*4F
$GPRMC,170849.40,A,5746.8371131,N,01246.2493856,E,9.41,85.84,040716,0.0,E,D*06
$GPGGA,170849.40,5746.8371131,N,01246.2493856,E,4,07,1.0,195.811,M,35.049,M,2.6,*44
$GPRMC,170849.50,A,5746.8371173,N,01246.2496476,E,5.41,83.93,040716,0.0,E,D*06
$GPGGA,170849.50,5746.8371173,N,01246.2496476,E,4,07,1.0,195.817,M,35.049,M,2.7,*4F
$GPRMC,170849.60,A,5746.8371219,N,01246.2499042,E,11.20,28.34,040716,0.0,E,D*38
$GPGGA,170849.60,5746.8371219,N,01246.2499042,E,4,07,1.0,195.817,M,35.049,M,2.8,*40
$GPRMC,170849.70,A,5746.8371160,N,01246.2501666,E,5.46,81.14,040716,0.0,E,D*00
$GPGGA,170849.70,5746.8371160,N,01246.2501666,E,4,07,1.0,195.808,M,35.049,M,2.9,*43
$GPRMC,170849.80,A,5746.8371114,N,01246.2504230,E,12.04,62.94,040716,0.0,E,D*3B
$GPGGA,170849.80,5746.8371114,N,01246.2504230,E,4,07,1.0,195.806,M,35.049,M,3.0,*4B
$GPRMC,170849.90,A,5746.8371016,N,01246.2506876,E,9.14,96.62,040716,0.0,E,D*0A
$GPGGA,170849.90,5746.8371016,N,01246.2506876,E,4,07,1.0,195.805,M,35.049,M,3.1,*41
$GPRMC,170850.00,A,5746.8370870,N,01246.2509512,E,6.15,85.37,040716,0.0,E,D*0E
$GPGGA,170850.00,5746.8370870,N,01246.2509512,E,4,07,1.0,195.798,M,35.049,M,1.2,*43
$GPRMC,170850.10,A,5746.8370710,N,01246.2512050,E,3.66,92.13,040716,0.0,E,D*0E
$GPGGA,170850.10,5746.8370710,N,01246.2512050,E,4,07,1.0,195.793,M,35.049,M,1.3,*48
$GPGSA,A,3,08,10,11,16,18,21,27,,,,,,1.9,1.2,1.4,1*20
$GPGSV,2,1,07,08,63,277,49,10,64,120,49,11,22,273,45,16,18,197,41,1*6C
$GPGSV,2,2,07,18,42,066,47,21,16,085,38,27,68,170,48,,,,,1*5C
$GPGSA,A,3,08,10,11,16,18,21,27,,,,,,1.9,1.2,1.4,1*20
$GPGSV,2,1,07,08,63,277,49,10,64,120,49,11,22,273,45,16,18,197,41,1*6C
$GPGSV,2,2,07,18,42,066,47,21,16,085,38,27,68,170,48,,,,,1*5C
$GPRMC,170850.40,A,5746.8370121,N,01246.2519785,E,4.36,54.65,040716,0.0,E,D*02
$GPGGA,170850.40,5746.8370121,N,01246.2519785,E,4,07,1.0,195.784,M,35.049,M,1.6,*4E
$GPRMC,170850.50,A,5746.8369790,N,01246.2522332,E,10.79,151.09,040716,0.0,E,D*07
$GPGGA,170850.50,5746.8369790,N,01246.2522332,E,4,07,1.0,195.792,M,35.049,M,1.7,*4D
$GPGSA,A,3,08,10,11,16,18,21,27,,,,,,1.9,1.2,1.4,1*20
$GPGSV,2,1,07,08,63,277,49,10,64,120,49,11,22,273,45,16,18,197,41,1*6C
$GPGSV,2,2,07,18,42,066,47,21,16,085,38,27,68,170,48,,,,,1*5C
$GPRMC,170850.70,A,5746.8369088,N,01246.2527420,E,5.55,74.29,040716,0.0,E,D*04
$GPGGA,170850.70,5746.8369088,N,01246.2527420,E,4,07,1.0,195.764,M,35.049,M,1.9,*47
$GPRMC,170850.80,A,5746.8368725,N,01246.2529955,E,4.97,156.00,040716,0.0,E,D*3E
$GPGGA,170850.80,5746.8368725,N,01246.2529955,E,4,07,1.0,195.760,M,35.049,M,2.0,*46
$GPRMC,170851.00,A,5746.8367914,N,01246.2534879,E,9.38,30.79,040716,0.0,E,D*00
$GPGGA,170851.00,5746.8367914,N,01246.2534879,E,4,07,1.0,195.757,M,35.049,M,2.2,*49
$GPGSA,A,3,08,10,11,16,18,21,27,,,,,,1.9,1.2,1.4,1*20
$GPGSV,2,1,07,08,63,277,49,10,64,120,49,11,22,273,46,16,18,197,41,1*6F
$GPGSV,2,2,07,18,42,066,47,21,16,085,40,27,68,170,49,,,,,1*52
$GPGSA,A,3,08,10,11,16,18,21,27,,,,,,1.9,1.2,1.4,1*20
$GPGSV,2,1,07,08,63,277,49,10,64,120,49,11,22,273,46,16,18,197,41,1*6F
$GPGSV,2,2,07,18,42,066,47,21,16,085,40,27,68,170,49,,,,,1*52
$GPGSA,A,3,08,10,11,16,18,21,27,,,,,,1.9,1.2,1.4,1*20
$GPGSV,2,1,07,08,63,277,49,10,64,120,49,11,22,273,46,16,18,197,41,1*6F
$GPGSV,2,2,07,18,42,066,47,21,16,085,40,27,68,170,49,,,,,1*52
$GPGSA,A,3,08,10,11,16,18,21,27,,,,,,1.9,1.2,1.4,1*20
$GPGSV,2,1,07,08,63,277,49,10,64,120,49,11,22,273,46,16,18,197,41,1*6F
$GPGSV,2,2,07,18,42,066,47,21,16,085,40,27,68,170,49,,,,,1*52
$GPGSA,A,3,08,10,11,16,18,21,27,,,,,,1.9,1.2,1.4,1*20
$GPGSV,2,1,07,08,63,277,49,10,64,120,49,11,22,273,46,16,18,197,41,1*6F
$GPGSV,2,2,07,18,42,066,47,21,16,085,40,27,68,170,49,,,,,1*52
$GPGSA,A,3,08,10,11,16,18,21,27,,,,,,1.9,1.2,1.4,1*20
$GPGSV,2,1,07,08,63,277,49,10,64,120,49,11,22,273,46,16,18,197,41,1*6F
$GPGSV,2,2,07,18,42,066,47,21,16,085,40,27,68,170,49,,,,,1*52
$GPRMC,170851.70,A,5746.8364005,N,01246.2551309,E,4.82,99.29,040716,0.0,E,D*08
$GPGGA,170851.70,5746.8364005,N,01246.2551309,E,4,07,1.0,195.791,M,35.049,M,2.9,*4A
$GPGSA,A,3,08,10,11,16,18,21,27,,,,,,1.9,1.2,1.4,1*20
$GPGSV,2,1,07,08,63,277,49,10,64,120,49,11,22,273,46,16,18,197,41,1*6F
$GPGSV,2,2,07,18,42,066,47,21,16,085,40,27,68,170,49,,,,,1*52
$GPRMC,170851.80,A,5746.8363241,N,01246.2553471,E,4.43,88.82,040716,0.0,E,D*04
$GPGGA,170851.80,5746.8363241,N,01246.2553471,E,4,07,1.0,195.788,M,35.049,M,3.0,*4A
$GPRMC,170851.90,A,5746.8362490,N,01246.2555624,E,3.63,105.99,040716,0.0,E,D*31
$GPGGA,170851.90,5746.8362490,N,01246.2555624,E,4,07,1.0,195.789,M,35.049,M,3.1,*44
$GPGSA,A,3,08,10,11,16,18,21,27,,,,,,1.9,1.2,1.4,1*20
$GPGSV,2,1,07,08,63,277,49,10,64,120,49,11,22,273,46,16,18,197,41,1*6F
$GPGSV,2,2,07,18,42,066,47,21,16,085,40,27,68,170,49,,,,,1*52
$GPGSA,A,3,08,10,11,16,18,21,27,,,,,,1.9,1.2,1.4,1*20
$GPGSV,2,1,07,08,63,277,49,10,64,120,49,11,22,273,44,16,18,197,42,1*6E
$GPGSV,2,2,07,18,42,066,48,21,16,085,41,27,68,170,49,,,,,1*5C
$GPGSA,A,3,08,10,11,16,18,21,27,,,,,,1.9,1.2,1.4,1*20
$GPGSV,2,1,07,08,63,277,49,10,64,120,49,11,22,273,44,16,18,197,42,1*6E
$GPGSV,2,2,07,18,42,066,48,21,16,085,41,27,68,170,49,,,,,1*5C
$GPGSA,A,3,08,10,11,16,18,21,27,,,,,,1.9,1.2,1.4,1*20
$GPGSV,2,1,07,08,63,277,49,10,64,120,49,11,22,273,44,16,18,197,42,1*6E
$GPGSV,2,2,07,18,42,066,48,21,16,085,41,27,68,170,49,,,,,1*5C
$GPGSA,A,3,08,10,11,16,18,21,27,,,,,,1.9,1.2,1.4,1*20
$GPGSV,2,1,07,08,63,277,49,10,64,120,49,11,22,273,44,16,18,197,42,1*6E
$GPGSV,2,2,07,18,42,066,48,21,16,085,41,27,68,170,49,,,,,1*5C
$GPRMC,170853.10,A,5746.8350985,N,01246.2578315,E,3.46,166.59,040716,0.0,E,D*35
$GPGGA,170853.10,5746.8350985,N,01246.2578315,E,4,07,1.0,195.745,M,35.049,M,2.3,*4D
$GPRMC,170853.20,A,5746.8349865,N,01246.2579988,E,11.68,144.98,040716,0.0,E,D*0C
$GPGGA,170853.20,5746.8349865,N,01246.2579988,E,4,07,1.0,195.737,M,35.049,M,2.4,*44
$GPRMC,170853.30,A,5746.8348821,N,01246.2581577,E,6.63,142.67,040716,0.0,E,D*3C
$GPGGA,170853.30,5746.8348821,N,01246.2581577,E,4,07,1.0,195.743,M,35.049,M,2.5,*4D
$GPRMC,170853.40,A,5746.8347764,N,01246.2583100,E,9.64,147.30,040716,0.0,E,D*33
$GPGGA,170853.40,5746.8347764,N,01246.2583100,E,4,07,1.0,195.750,M,35.049,M,2.6,*4C
$GPRMC,170853.50,A,5746.8346580,N,01246.2584582,E,7.85,161.85,040716,0.0,E,D*39
$GPGGA,170853.50,5746.8346580,N,01246.2584582,E,4,07,1.0,195.753,M,35.049,M,2.7,*4F
$GPRMC,170853.60,A,5746.8345465,N,01246.2585987,E,4.73,91.73,040716,0.0,E,D*06
$GPGGA,170853.60,5746.8345465,N,01246.2585987,E,4,07,1.0,195.757,M,35.049,M,2.8,*46
$GPRMC,170853.70,A,5746.8344226,N,01246.2587336,E,4.73,131.13,040716,0.0,E,D*38
$GPGGA,170853.70,5746.8344226,N,01246.2587336,E,4,07,1.0,195.756,M,35.049,M,2.9,*45
$GPRMC,170853.80,A,5746.8342931,N,01246.2588634,E,5.87,181.54,040716,0.0,E,D*36
$GPGGA,170853.80,5746.8342931,N,01246.2588634,E,4,07,1.0,195.746,M,35.049,M,3.0,*40
$GPRMC,170854.00,A,5746.8340420,N,01246.2590939,E,7.17,150.93,040716,0.0,E,D*31
$GPGGA,170854.00,5746.8340420,N,01246.2590939,E,4,07,1.0,195.736,M,35.049,M,3.2,*4E
$GPRMC,170854.10,A,5746.8339135,N,01246.2591992,E,11.60,184.27,040716,0.0,E,D*0E
$GPGGA,170854.10,5746.8339135,N,01246.2591992,E,4,07,1.0,195.742,M,35.049,M,3.3,*42
$GPGSA,A,3,08,10,11,16,18,21,27,,,,,,1.9,1.2,1.4,1*20
$GPGSV,2,1,07,08,63,277,49,10,64,120,49,11,22,273,45,16,18,197,41,1*6C
$GPGSV,2,2,07,18,42,066,48,21,16,085,40,27,68,170,48,,,,,1*5C
$GPGSA,A,3,08,10,11,16,18,21,27,,,,,,1.9,1.2,1.4,1*20
$GPGSV,2,1,07,08,63,277,49,10,64,120,49,11,22,273,45,16,18,197,41,1*6C
$GPGSV,2,2,07,18,42,066,48,21,16,085,40,27,68,170,48,,,,,1*5C
$GPGSA,A,3,08,10,11,16,18,21,27,,,,,,1.9,1.2,1.4,1*20
$GPGSV,2,1,07,08,63,277,48,10,64,120,50,11,22,273,44,16,18,197,40,1*65
$GPGSV,2,2,07,18,42,066,48,21,16,085,41,27,68,170,48,,,,,1*5D
$GPGSA,A,3,08,10,11,16,18,21,27,,,,,,1.9,1.2,1.4,1*20
$GPGSV,2,1,07,08,63,277,48,10,64,120,50,11,22,273,44,16,18,197,40,1*65
$GPGSV,2,2,07,18,42,066,48,21,16,085,41,27,68,170,48,,,,,1*5D
$GPGSA,A,3,08,10,11,16,18,21,27,,,,,,1.9,1.2,1.4,1*20
$GPGSV,2,1,07,08,63,277,49,10,64,120,50,11,22,273,45,16,18,197,40,1*65
$GPGSV,2,2,07,18,42,066,47,21,16,085,41,27,68,170,48,,,,,1*52
$GPRMC,170858.20,A,5746.8285356,N,01246.2578565,E,6.58,268.21,040716,0.0,E,D*39
$GPGGA,170858.20,5746.8285356,N,01246.2578565,E,4,07,1.0,195.804,M,35.049,M,1.4,*47
$GPGSA,A,3,08,10,11,16,18,21,27,,,,,,1.9,1.2,1.4,1*20
$GPGSV,2,1,07,08,63,277,49,10,64,120,50,11,22,273,44,16,18,197,40,1*64
$GPGSV,2,2,07,18,42,066,48,21,16,085,41,27,68,170,48,,,,,1*5D
$GPRMC,170858.40,A,5746.8283107,N,01246.2575407,E,4.37,241.18,040716,0.0,E,D*3D
$GPGGA,170858.40,5746.8283107,N,01246.2575407,E,4,07,1.0,195.788,M,35.049,M,1.6,*40
$GPGSA,A,3,08,10,11,16,18,21,27,,,,,,1.9,1.2,1.4,1*20
$GPGSV,2,1,07,08,63,277,49,10,64,120,50,11,22,273,44,16,18,197,40,1*64
$GPGSV,2,2,07,18,42,066,48,21,16,085,41,27,68,170,48,,,,,1*5D
$GPRMC,170858.60,A,5746.8281030,N,01246.2571998,E,5.78,224.55,040716,0.0,E,D*37
$GPGGA,170858.60,5746.8281030,N,01246.2571998,E,4,07,1.0,195.785,M,35.049,M,1.8,*49
$GPGSA,A,3,08,10,11,16,18,21,27,,,,,,1.9,1.2,1.4,1*20
$GPGSV,2,1,07,08,63,277,49,10,64,120,50,11,22,273,44,16,18,197,40,1*64
$GPGSV,2,2,07,18,42,066,48,21,16,085,41,27,68,170,48,,,,,1*5D
$GPRMC,170859.40,A,5746.8274036,N,01246.2555917,E,8.01,268.97,040716,0.0,E,D*3C
$GPGGA,170859.40,5746.8274036,N,01246.2555917,E,4,07,1.0,195.787,M,35.049,M,2.6,*48
$GPRMC,170900.20,A,5746.8268874,N,01246.2537311,E,6.58,268.70,040716,0.0,E,D*37
$GPGGA,170900.20,5746.8268874,N,01246.2537311,E,4,07,1.0,195.809,M,35.050,M,1.4,*48
$GPRMC,170900.30,A,5746.8268310,N,01246.2534929,E,5.92,267.27,040716,0.0,E,D*35
$GPGGA,170900.30,5746.8268310,N,01246.2534929,E,4,07,1.0,195.810,M,35.050,M,1.5,*4B
$GPRMC,170900.40,A,5746.8267845,N,01246.2532444,E,7.91,262.58,040716,0.0,E,D*3A
$GPGGA,170900.40,5746.8267845,N,01246.2532444,E,4,07,1.0,195.799,M,35.050,M,1.6,*45
$GPRMC,170900.50,A,5746.8267415,N,01246.2529989,E,6.30,211.57,040716,0.0,E,D*35
$GPGGA,170900.50,5746.8267415,N,01246.2529989,E,4,07,1.0,195.806,M,35.050,M,1.7,*43
$GPRMC,170900.60,A,5746.8266945,N,01246.2527543,E,8.15,266.97,040716,0.0,E,D*3E
$GPGGA,170900.60,5746.8266945,N,01246.2527543,E,4,07,1.0,195.803,M,35.050,M,1.8,*47
$GPRMC,170900.80,A,5746.8266201,N,01246.2522576,E,11.26,222.66,040716,0.0,E,D*0E
$GPGGA,170900.80,5746.8266201,N,01246.2522576,E,4,07,1.0,195.799,M,35.050,M,2.0,*46
$GPRMC,170900.90,A,5746.8265883,N,01246.2519978,E,8.09,268.10,040716,0.0,E,D*3C
$GPGGA,170900.90,5746.8265883,N,01246.2519978,E,4,07,1.0,195.799,M,35.050,M,2.1,*4F
$GPRMC,170901.00,A,5746.8265641,N,01246.2517416,E,5.33,303.42,040716,0.0,E,D*30
$GPGGA,170901.00,5746.8265641,N,01246.2517416,E,4,07,1.0,195.811,M,35.050,M,2.2,*40
$GPRMC,170901.10,A,5746.8265373,N,01246.2514836,E,7.08,273.85,040716,0.0,E,D*3F
$GPGGA,170901.10,5746.8265373,N,01246.2514836,E,4,07,1.0,195.803,M,35.050,M,2.3,*4A
$GPGSA,A,3,08,10,11,16,18,21,27,,,,,,1.9,1.2,1.4,1*20
$GPGSV,2,1,07,08,63,277,48,10,64,120,50,11,22,273,42,16,18,197,41,1*62
$GPGSV,2,2,07,18,42,066,48,21,16,085,43,27,68,170,49,,,,,1*5E
$GPRMC,170901.20,A,5746.8265271,N,01246.2512249,E,7.51,288.15,040716,0.0,E,D*3A
$GPGGA,170901.20,5746.8265271,N,01246.2512249,E,4,07,1.0,195.813,M,35.050,M,2.4,*48
$GPRMC,170901.30,A,5746.8265139,N,01246.2509645,E,8.81,281.63,040716,0.0,E,D*3C
$GPGGA,170901.30,5746.8265139,N,01246.2509645,E,4,07,1.0,195.819,M,35.050,M,2.5,*4F
$GPRMC,170901.40,A,5746.8265010,N,01246.2507049,E,11.47,235.74,040716,0.0,E,D*0E
$GPGGA,170901.40,5746.8265010,N,01246.2507049,E,4,07,1.0,195.819,M,35.050,M,2.6,*45
$GPGSA,A,3,08,10,11,16,18,21,27,,,,,,1.9,1.2,1.4,1*20
$GPGSV,2,1,07,08,63,277,48,10,64,120,50,11,22,273,42,16,18,197,41,1*62
$GPGSV,2,2,07,18,42,066,48,21,16,085,43,27,68,170,49,,,,,1*5E
$GPRMC,170901.60,A,5746.8264988,N,01246.2501833,E,3.43,338.29,040716,0.0,E,D*35
$GPGGA,170901.60,5746.8264988,N,01246.2501833,E,4,07,1.0,195.834,M,35.050,M,2.8,*4C
$GPRMC,170901.70,A,5746.8264981,N,01246.2499267,E,12.60,284.84,040716,0.0,E,D*06
$GPGGA,170901.70,5746.8264981,N,01246.2499267,E,4,07,1.0,195.831,M,35.050,M,2.9,*4B
$GPGSA,A,3,08,10,11,16,18,21,27,,,,,,1.9,1.2,1.4,1*20
$GPGSV,2,1,07,08,63,277,48,10,64,120,50,11,22,273,42,16,18,197,41,1*62
$GPGSV,2,2,07,18,42,066,48,21,16,085,43,27,68,170,49,,,,,1*5E
$GPGSA,A,3,08,10,11,16,18,21,27,,,,,,1.9,1.2,1.4,1*20
$GPGSV,2,1,07,08,63,277,48,10,64,120,50,11,22,273,42,16,18,197,41,1*62
$GPGSV,2,2,07,18,42,066,48,21,16,085,43,27,68,170,49,,,,,1*5E
$GPRMC,170902.00,A,5746.8265205,N,01246.2491493,E,6.79,213.76,040716,0.0,E,D*3F
$GPGGA,170902.00,5746.8265205,N,01246.2491493,E,4,07,1.0,195.845,M,35.050,M,1.2,*47
$GPGSA,A,3,08,10,11,16,18,21,27,,,,,,1.9,1.2,1.4,1*20
$GPGSV,2,1,07,08,63,277,48,10,64,120,50,11,22,273,42,16,18,197,40,1*63
$GPGSV,2,2,07,18,42,066,48,21,16,085,44,27,68,170,49,,,,,1*59
$GPRMC,170902.20,A,5746.8265535,N,01246.2486316,E,6.01,232.33,040716,0.0,E,D*38
$GPGGA,170902.20,5746.8265535,N,01246.2486316,E,4,07,1.0,195.838,M,35.050,M,1.4,*41
$GPRMC,170902.30,A,5746.8265754,N,01246.2483711,E,5.66,287.75,040716,0.0,E,D*34
$GPGGA,170902.30,5746.8265754,N,01246.2483711,E,4,07,1.0,195.841,M,35.050,M,1.5,*4C
$GPRMC,170902.40,A,5746.8265984,N,01246.2481134,E,2.67,296.16,040716,0.0,E,D*30
$GPGGA,170902.40,5746.8265984,N,01246.2481134,E,4,07,1.0,195.869,M,35.050,M,1.6,*42
$GPRMC,170902.50,A,5746.8266192,N,01246.2478584,E,9.17,298.01,040716,0.0,E,D*30
$GPGGA,170902.50,5746.8266192,N,01246.2478584,E,4,07,1.0,195.870,M,35.050,M,1.7,*4F
$GPGSA,A,3,08,10,11,16,18,21,27,,,,,,1.9,1.2,1.4,1*20
$GPGSV,2,1,07,08,63,277,48,10,64,120,50,11,22,273,42,16,18,197,40,1*63
$GPGSV,2,2,07,18,42,066,48,21,16,085,44,27,68,170,49,,,,,1*59
$GPGSA,A,3,08,10,11,16,18,21,27,,,,,,1.9,1.2,1.4,1*20
$GPGSV,2,1,07,08,63,277,48,10,64,120,50,11,22,273,42,16,18,197,40,1*63
$GPGSV,2,2,07,18,42,066,48,21,16,085,44,27,68,170,49,,,,,1*59
$GPGSA,A,3,08,10,11,16,18,21,27,,,,,,1.9,1.2,1.4,1*20
$GPGSV,2,1,07,08,63,277,48,10,64,120,50,11,22,273,42,16,18,197,40,1*63
$GPGSV,2,2,07,18,42,066,48,21,16,085,44,27,68,170,49,,,,,1*59
$GPGSA,A,3,08,10,11,16,18,21,27,,,,,,1.9,1.2,1.4,1*20
$GPGSV,2,1,07,08,63,277,48,10,64,120,50,11,22,273,42,16,18,197,40,1*63
$GPGSV,2,2,07,18,42,066,48,21,16,085,44,27,68,170,49,,,,,1*59
$GPRMC,170903.00,A,5746.8268133,N,01246.2466093,E,6.94,328.09,040716,0.0,E,D*3B
$GPGGA,170903.00,5746.8268133,N,01246.2466093,E,4,07,1.0,195.884,M,35.050,M,2.2,*4F
$GPRMC,170903.10,A,5746.8268639,N,01246.2463643,E,6.12,281.87,040716,0.0,E,D*33
$GPGGA,170903.10,5746.8268639,N,01246.2463643,E,4,07,1.0,195.888,M,35.050,M,2.3,*40
$GPGSA,A,3,08,10,11,16,18,21,27,,,,,,1.9,1.2,1.4,1*20
$GPGSV,2,1,07,08,63,277,48,10,64,120,50,11,22,273,43,16,18,197,42,1*60
$GPGSV,2,2,07,18,42,066,48,21,16,085,43,27,68,170,49,,,,,1*5E
$GPRMC,170903.20,A,5746.8269163,N,01246.2461255,E,4.24,279.02,040716,0.0,E,D*35
$GPGGA,170903.20,5746.8269163,N,01246.2461255,E,4,07,1.0,195.891,M,35.050,M,2.4,*44
$GPGSA,A,3,08,10,11,16,18,21,27,,,,,,1.9,1.2,1.4,1*20
$GPGSV,2,1,07,08,63,277,48,10,64,120,50,11,22,273,43,16,18,197,42,1*60
$GPGSV,2,2,07,18,42,066,48,21,16,085,43,27,68,170,49,,,,,1*5E
$GPGSA,A,3,08,10,11,16,18,21,27,,,,,,1.9,1.2,1.4,1*20
$GPGSV,2,1,07,08,63,277,48,10,64,120,50,11,22,273,43,16,18,197,42,1*60
$GPGSV,2,2,07,18,42,066,48,21,16,085,43,27,68,170,49,,,,,1*5E
$GPRMC,170903.40,A,5746.8270332,N,01246.2456538,E,7.43,290.94,040716,0.0,E,D*3F
$GPGGA,170903.40,5746.8270332,N,01246.2456538,E,4,07,1.0,195.900,M,35.050,M,2.6,*4F
$GPGSA,A,3,08,10,11,16,18,21,27,,,,,,1.9,1.2,1.4,1*20
$GPGSV,2,1,07,08,63,277,48,10,64,120,50,11,22,273,43,16,18,197,42,1*60
$GPGSV,2,2,07,18,42,066,48,21,16,085,43,27,68,170,49,,,,,1*5E
$GPRMC,170903.50,A,5746.8271001,N,01246.2454218,E,6.23,314.87,040716,0.0,E,D*33
$GPGGA,170903.50,5746.8271001,N,01246.2454218,E,4,07,1.0,195.898,M,35.050,M,2.7,*4A
$GPGSA,A,3,08,10,11,16,18,21,27,,,,,,1.9,1.2,1.4,1*20
$GPGSV,2,1,07,08,63,277,48,10,64,120,50,11,22,273,43,16,18,197,42,1*60
$GPGSV,2,2,07,18,42,066,48,21,16,085,43,27,68,170,49,,,,,1*5E
$GPRMC,170903.60,A,5746.8271701,N,01246.2451961,E,6.45,281.22,040716,0.0,E,D*35
$GPGGA,170903.60,5746.8271701,N,01246.2451961,E,4,07,1.0,195.908,M,35.050,M,2.8,*49
$GPRMC,170903.80,A,5746.8273144,N,01246.2447547,E,5.74,309.29,040716,0.0,E,D*3A
$GPGGA,170903.80,5746.8273144,N,01246.2447547,E,4,07,1.0,195.911,M,35.050,M,3.0,*4C
$GPRMC,170904.10,A,5746.8275442,N,01246.2441210,E,4.78,290.89,040716,0.0,E,D*34
$GPGGA,170904.10,5746.8275442,N,01246.2441210,E,4,07,1.0,195.878,M,35.050,M,3.3,*49
$GPRMC,170904.20,A,5746.8276271,N,01246.2439164,E,6.99,295.29,040716,0.0,E,D*3F
$GPGGA,170904.20,5746.8276271,N,01246.2439164,E,4,07,1.0,195.868,M,35.050,M,3.4,*46
$GPGSA,A,3,08,10,11,16,18,21,27,,,,,,1.9,1.2,1.4,1*20
$GPGSV,2,1,07,08,63,277,48,10,64,120,50,11,22,273,43,16,18,197,42,1*60
$GPGSV,2,2,07,18,42,066,48,21,16,085,41,27,68,170,49,,,,,1*5C
$GPRMC,170904.30,A,5746.8277150,N,01246.2437121,E,5.02,312.93,040716,0.0,E,D*3E
$GPGGA,170904.30,5746.8277150,N,01246.2437121,E,4,07,1.0,195.862,M,35.050,M,3.5,*42
$GPRMC,170904.40,A,5746.8278024,N,01246.2435084,E,4.40,285.71,040716,0.0,E,D*3C
$GPGGA,170904.40,5746.8278024,N,01246.2435084,E,4,07,1.0,195.855,M,35.050,M,3.6,*43
$GPRMC,170904.50,A,5746.8278904,N,01246.2433105,E,6.10,333.49,040716,0.0,E,D*38
$GPGGA,170904.50,5746.8278904,N,01246.2433105,E,4,07,1.0,195.851,M,35.050,M,3.7,*42
$GPGSA,A,3,08,10,11,16,18,21,27,,,,,,1.9,1.2,1.4,1*20
$GPGSV,2,1,07,08,63,277,48,10,64,120,50,11,22,273,43,16,18,197,42,1*60
$GPGSV,2,2,07,18,42,066,48,21,16,085,41,27,68,170,49,,,,,1*5C
$GPGSA,A,3,08,10,11,16,18,21,27,,,,,,1.9,1.2,1.4,1*20
$GPGSV,2,1,07,08,63,277,48,10,64,120,50,11,22,273,43,16,18,197,42,1*60
$GPGSV,2,2,07,18,42,066,48,21,16,085,41,27,68,170,49,,,,,1*5C
$GPRMC,170904.70,A,5746.8280789,N,01246.2429338,E,4.92,328.22,040716,0.0,E,D*3E
$GPGGA,170904.70,5746.8280789,N,01246.2429338,E,4,07,1.0,195.846,M,35.050,M,3.9,*43
$GPRMC,170904.80,A,5746.8281824,N,01246.2427500,E,6.70,322.15,040716,0.0,E,D*3B
$GPGGA,170904.80,5746.8281824,N,01246.2427500,E,4,07,1.0,195.861,M,35.050,M,4.0,*4D
$GPGSA,A,3,08,10,11,16,18,21,27,,,,,,1.9,1.2,1.4,1*20
$GPGSV,2,1,07,08,63,277,48,10,64,120,50,11,22,273,43,16,18,197,42,1*60
$GPGSV,2,2,07,18,42,066,48,21,16,085,41,27,68,170,49,,,,,1*5C
$GPRMC,170904.90,A,5746.8282837,N,01246.2425752,E,4.83,300.09,040716,0.0,E,D*3F
$GPGGA,170904.90,5746.8282837,N,01246.2425752,E,4,07,1.0,195.870,M,35.050,M,4.1,*4B
$GPGSA,A,3,08,10,11,16,18,21,27,,,,,,1.9,1.2,1.4,1*20
$GPGSV,2,1,07,08,63,277,48,10,64,120,50,11,22,273,43,16,18,197,42,1*60
$GPGSV,2,2,07,18,42,066,48,21,16,085,41,27,68,170,49,,,,,1*5C
$GPRMC,170905.00,A,5746.8283895,N,01246.2424019,E,5.22,319.53,040716,0.0,E,D*3A
$GPGGA,170905.00,5746.8283895,N,01246.2424019,E,4,07,1.0,195.871,M,35.050,M,1.2,*44
$GPGSA,A,3,08,10,11,16,18,21,27,,,,,,1.9,1.2,1.4,1*20
$GPGSV,2,1,07,08,63,277,49,10,64,120,49,11,22,273,44,16,18,197,41,1*6D
$GPGSV,2,2,07,18,42,066,48,21,16,085,40,27,68,170,49,,,,,1*5D
$GPRMC,170905.10,A,5746.8285058,N,01246.2422383,E,4.29,315.36,040716,0.0,E,D*37
$GPGGA,170905.10,5746.8285058,N,01246.2422383,E,4,07,1.0,195.878,M,35.050,M,1.3,*44
$GPRMC,170905.20,A,5746.8286184,N,01246.2420816,E,5.68,305.23,040716,0.0,E,D*33
$GPGGA,170905.20,5746.8286184,N,01246.2420816,E,4,07,1.0,195.885,M,35.050,M,1.4,*44
$GPGSA,A,3,08,10,11,16,18,21,27,,,,,,1.9,1.2,1.4,1*20
$GPGSV,2,1,07,08,63,277,49,10,64,120,49,11,22,273,44,16,18,197,41,1*6D
$GPGSV,2,2,07,18,42,066,48,21,16,085,40,27,68,169,49,,,,,1*55
$GPRMC,170905.30,A,5746.8287356,N,01246.2419329,E,3.20,292.45,040716,0.0,E,D*36
$GPGGA,170905.30,5746.8287356,N,01246.2419329,E,4,07,1.0,195.886,M,35.050,M,1.5,*46
$GPRMC,170905.40,A,5746.8288477,N,01246.2417890,E,6.22,333.12,040716,0.0,E,D*32
$GPGGA,170905.40,5746.8288477,N,01246.2417890,E,4,07,1.0,195.886,M,35.050,M,1.6,*4E
$GPGSA,A,3,08,10,11,16,18,21,27,,,,,,1.9,1.2,1.4,1*20
$GPGSV,2,1,07,08,63,277,49,10,64,120,49,11,22,273,44,16,18,197,41,1*6D
$GPGSV,2,2,07,18,42,066,48,21,16,085,40,27,68,169,49,,,,,1*55
$GPRMC,170905.50,A,5746.8289640,N,01246.2416523,E,9.75,328.74,040716,0.0,E,D*37
$GPGGA,170905.50,5746.8289640,N,01246.2416523,E,4,07,1.0,195.889,M,35.050,M,1.7,*42
$GPGSA,A,3,08,10,11,16,18,21,27,,,,,,1.9,1.2,1.4,1*20
$GPGSV,2,1,07,08,63,277,49,10,64,120,49,11,22,273,44,16,18,197,41,1*6D
$GPGSV,2,2,07,18,42,066,48,21,16,085,40,27,68,169,49,,,,,1*55
$GPGSA,A,3,08,10,11,16,18,21,27,,,,,,1.9,1.2,1.4,1*20
$GPGSV,2,1,07,08,63,277,49,10,64,120,49,11,22,273,44,16,18,197,41,1*6D
$GPGSV,2,2,07,18,42,066,48,21,16,085,40,27,68,169,49,,,,,1*55
$GPRMC,170905.70,A,5746.8292062,N,01246.2413920,E,8.38,337.51,040716,0.0,E,D*32
$GPGGA,170905.70,5746.8292062,N,01246.2413920,E,4,07,1.0,195.896,M,35.050,M,1.9,*46
$GPGSA,A,3,08,10,11,16,18,21,27,,,,,,1.9,1.2,1.4,1*20
$GPGSV,2,1,07,08,63,277,49,10,64,120,49,11,22,273,44,16,18,197,41,1*6D
$GPGSV,2,2,07,18,42,066,48,21,16,085,40,27,68,169,49,,,,,1*55
$GPGSA,A,3,08,10,11,16,18,21,27,,,,,,1.9,1.2,1.4,1*20
$GPGSV,2,1,07,08,63,277,49,10,64,120,49,11,22,273,44,16,18,197,41,1*6D
$GPGSV,2,2,07,18,42,066,48,21,16,085,40,27,68,169,49,,,,,1*55
$GPGSA,A,3,08,10,11,16,18,21,27,,,,,,1.9,1.2,1.4,1*20
$GPGSV,2,1,07,08,63,277,49,10,64,120,49,11,22,273,44,16,18,197,41,1*6D
$GPGSV,2,2,07,18,42,066,48,21,16,085,40,27,68,169,49,,,,,1*55
$GPGSA,A,3,08,10,11,16,18,21,27,,,,,,1.9,1.2,1.4,1*20
$GPGSV,2,1,07,08,63,277,49,10,64,120,49,11,22,273,45,16,18,197,42,1*6F
$GPGSV,2,2,07,18,42,066,47,21,16,085,41,27,68,169,49,,,,,1*5B
$GPRMC,170906.20,A,5746.8298277,N,01246.2408293,E,9.36,352.16,040716,0.0,E,D*3E
$GPGGA,170906.20,5746.8298277,N,01246.2408293,E,4,07,1.0,195.868,M,35.050,M,2.4,*4A
$GPGSA,A,3,08,10,11,16,18,21,27,,,,,,1.9,1.2,1.4,1*20
$GPGSV,2,1,07,08,63,277,49,10,64,120,49,11,22,273,45,16,18,197,42,1*6F
$GPGSV,2,2,07,18,42,066,47,21,16,085,41,27,68,169,49,,,,,1*5B
$GPRMC,170906.40,A,5746.8300929,N,01246.2406447,E,9.56,307.09,040716,0.0,E,D*31
$GPGGA,170906.40,5746.8300929,N,01246.2406447,E,4,07,1.0,195.864,M,35.050,M,2.6,*43
$GPRMC,170906.50,A,5746.8302243,N,01246.2405599,E,4.56,348.79,040716,0.0,E,D*35
$GPGGA,170906.50,5746.8302243,N,01246.2405599,E,4,07,1.0,195.869,M,35.050,M,2.7,*4A
$GPRMC,170906.60,A,5746.8303524,N,01246.2404786,E,3.96,333.22,040716,0.0,E,D*35
$GPGGA,170906.60,5746.8303524,N,01246.2404786,E,4,07,1.0,195.874,M,35.050,M,2.8,*40
$GPRMC,170906.80,A,5746.8306200,N,01246.2403379,E,6.50,328.50,040716,0.0,E,D*3C
$GPGGA,170906.80,5746.8306200,N,01246.2403379,E,4,07,1.0,195.876,M,35.050,M,3.0,*42
$GPRMC,170907.00,A,5746.8308919,N,01246.2402272,E,6.77,332.51,040716,0.0,E,D*3C
$GPGGA,170907.00,5746.8308919,N,01246.2402272,E,4,07,1.0,195.889,M,35.050,M,1.2,*4D
$GPRMC,170907.10,A,5746.8310355,N,01246.2401834,E,11.57,333.77,040716,0.0,E,D*0C
$GPGGA,170907.10,5746.8310355,N,01246.2401834,E,4,07,1.0,195.891,M,35.050,M,1.3,*44
$GPGSA,A,3,08,10,11,16,18,21,27,,,,,,1.9,1.2,1.4,1*20
$GPGSV,2,1,07,08,63,277,49,10,64,120,50,11,22,273,44,16,18,197,41,1*65
$GPGSV,2,2,07,18,42,066,46,21,16,085,40,27,68,169,49,,,,,1*5B
$GPRMC,170907.20,A,5746.8311714,N,01246.2401405,E,9.91,344.60,040716,0.0,E,D*34
$GPGGA,170907.20,5746.8311714,N,01246.2401405,E,4,07,1.0,195.886,M,35.050,M,1.4,*48
$GPRMC,170907.30,A,5746.8313096,N,01246.2401084,E,5.59,24.94,040716,0.0,E,D*01
$GPGGA,170907.30,5746.8313096,N,01246.2401084,E,4,07,1.0,195.881,M,35.050,M,1.5,*4D
$GPGSA,A,3,08,10,11,16,18,21,27,,,,,,1.9,1.2,1.4,1*20
$GPGSV,2,1,07,08,63,277,49,10,64,120,50,11,22,273,44,16,18,197,41,1*65
$GPGSV,2,2,07,18,42,066,46,21,16,085,40,27,68,169,49,,,,,1*5B
$GPRMC,170907.40,A,5746.8314553,N,01246.2400938,E,2.90,279.82,040716,0.0,E,D*3D
$GPGGA,170907.40,5746.8314553,N,01246.2400938,E,4,07,1.0,195.877,M,35.050,M,1.6,*44
$GPGSA,A,3,08,10,11,16,18,21,27,,,,,,1.9,1.2,1.4,1*20
$GPGSV,2,1,07,08,63,277,49,10,64,120,50,11,22,273,44,16,18,197,41,1*65
$GPGSV,2,2,07,18,42,066,46,21,16,085,40,27,68,169,49,,,,,1*5B
$GPRMC,170907.50,A,5746.8315892,N,01246.2400777,E,4.89,342.90,040716,0.0,E,D*3C
$GPGGA,170907.50,5746.8315892,N,01246.2400777,E,4,07,1.0,195.868,M,35.050,M,1.7,*4E
$GPRMC,170908.20,A,5746.8325582,N,01246.2402021,E,6.18,3.01,040716,0.0,E,D*39
$GPGGA,170908.20,5746.8325582,N,01246.2402021,E,4,07,1.0,195.873,M,35.050,M,2.4,*45
$GPRMC,170909.00,A,5746.8336364,N,01246.2407309,E,9.95,10.15,040716,0.0,E,D*07
$GPGGA,170909.00,5746.8336364,N,01246.2407309,E,4,07,1.0,195.873,M,35.050,M,3.2,*41
$GPGSA,A,3,08,10,11,16,18,21,27,,,,,,1.9,1.2,1.4,1*20
$GPGSV,2,1,07,08,63,277,50,10,64,120,49,11,22,273,45,16,18,197,44,1*61
$GPGSV,2,2,07,18,42,066,46,21,16,085,40,27,68,169,49,,,,,1*5B
$GPRMC,170909.40,A,5746.8341597,N,01246.2411014,E,6.36,23.19,040716,0.0,E,D*0B
$GPGGA,170909.40,5746.8341597,N,01246.2411014,E,4,07,1.0,195.868,M,35.050,M,3.6,*49
$GPRMC,170909.70,A,5746.8345317,N,01246.2414594,E,5.68,6.36,040716,0.0,E,D*38
$GPGGA,170909.70,5746.8345317,N,01246.2414594,E,4,07,1.0,195.854,M,35.050,M,3.9,*48
$GPRMC,170909.80,A,5746.8346509,N,01246.2415899,E,7.73,65.37,040716,0.0,E,D*00
$GPGGA,170909.80,5746.8346509,N,01246.2415899,E,4,07,1.0,195.849,M,35.050,M,4.0,*4E
$GPRMC,170911.40,A,5746.8362139,N,01246.2445107,E,7.34,109.37,040716,0.0,E,D*37
$GPGGA,170911.40,5746.8362139,N,01246.2445107,E,4,07,1.0,195.843,M,35.049,M,1.6,*40
$GPGSA,A,3,08,10,11,16,18,21,27,,,,,,1.9,1.2,1.4,1*20
$GPGSV,2,1,07,08,63,277,49,10,64,120,49,11,22,273,45,16,18,197,43,1*6E
$GPGSV,2,2,07,18,42,066,47,21,16,085,39,27,68,169,49,,,,,1*54
$GPRMC,170911.50,A,5746.8362923,N,01246.2447291,E,4.77,38.16,040716,0.0,E,D*0F
$GPGGA,170911.50,5746.8362923,N,01246.2447291,E,4,07,1.0,195.842,M,35.049,M,1.7,*4C
$GPRMC,170911.90,A,5746.8365771,N,01246.2456197,E,9.59,47.84,040716,0.0,E,D*0A
$GPGGA,170911.90,5746.8365771,N,01246.2456197,E,4,07,1.0,195.834,M,35.049,M,2.1,*4F
$GPRMC,170912.10,A,5746.8367062,N,01246.2460827,E,9.89,64.57,040716,0.0,E,D*03
$GPGGA,170912.10,5746.8367062,N,01246.2460827,E,4,07,1.0,195.813,M,35.049,M,1.3,*40
$GPRMC,170912.20,A,5746.8367597,N,01246.2463169,E,5.98,50.23,040716,0.0,E,D*07
$GPGGA,170912.20,5746.8367597,N,01246.2463169,E,4,07,1.0,195.805,M,35.049,M,1.4,*4C
$GPGSA,A,3,08,10,11,16,18,21,27,,,,,,1.9,1.2,1.4,1*20
$GPGSV,2,1,07,08,63,277,49,10,64,120,50,11,22,273,45,16,18,197,41,1*64
$GPGSV,2,2,07,18,42,066,48,21,16,085,39,27,68,169,49,,,,,1*5B
$GPRMC,170912.40,A,5746.8368544,N,01246.2468103,E,5.15,75.26,040716,0.0,E,D*00
$GPGGA,170912.40,5746.8368544,N,01246.2468103,E,4,07,1.0,195.801,M,35.049,M,1.6,*4A
$GPGSA,A,3,08,10,11,16,18,21,27,,,,,,1.9,1.2,1.4,1*20
$GPGSV,2,1,07,08,63,277,49,10,64,120,50,11,22,273,45,16,18,197,41,1*64
$GPGSV,2,2,07,18,42,066,48,21,16,085,39,27,68,169,49,,,,,1*5B
$GPRMC,170912.50,A,5746.8368960,N,01246.2470612,E,5.06,52.17,040716,0.0,E,D*00
$GPGGA,170912.50,5746.8368960,N,01246.2470612,E,4,07,1.0,195.796,M,35.049,M,1.7,*4F
$GPRMC,170912.60,A,5746.8369339,N,01246.2473098,E,6.68,67.71,040716,0.0,E,D*0E
$GPGGA,170912.60,5746.8369339,N,01246.2473098,E,4,07,1.0,195.794,M,35.049,M,1.8,*41
$GPGSA,A,3,08,10,11,16,18,21,27,,,,,,1.9,1.2,1.4,1*20
$GPGSV,2,1,07,08,63,277,49,10,64,120,50,11,22,273,45,16,18,197,41,1*64
$GPGSV,2,2,07,18,42,066,48,21,16,085,39,27,68,169,49,,,,,1*5B
$GPRMC,170912.70,A,5746.8369698,N,01246.2475609,E,5.05,104.50,040716,0.0,E,D*36
$GPGGA,170912.70,5746.8369698,N,01246.2475609,E,4,07,1.0,195.790,M,35.049,M,1.9,*43
$GPRMC,170913.20,A,5746.8370842,N,01246.2488459,E,5.61,88.69,040716,0.0,E,D*0B
$GPGGA,170913.20,5746.8370842,N,01246.2488459,E,4,07,1.0,195.791,M,35.049,M,2.4,*4C
$GPRMC,170913.40,A,5746.8371153,N,01246.2493676,E,5.14,78.81,040716,0.0,E,D*0B
$GPGGA,170913.40,5746.8371153,N,01246.2493676,E,4,07,1.0,195.810,M,35.049,M,2.6,*43
$GPRMC,170913.60,A,5746.8371254,N,01246.2498845,E,6.66,77.15,040716,0.0,E,D*0C
$GPGGA,170913.60,5746.8371254,N,01246.2498845,E,4,07,1.0,195.812,M,35.049,M,2.8,*4C
$GPRMC,170913.80,A,5746.8371238,N,01246.2504050,E,7.72,116.08,040716,0.0,E,D*3E
$GPGGA,170913.80,5746.8371238,N,01246.2504050,E,4,07,1.0,195.801,M,35.049,M,3.0,*4B
$GPRMC,170914.00,A,5746.8371087,N,01246.2509214,E,5.78,74.43,040716,0.0,E,D*0A
$GPGGA,170914.00,5746.8371087,N,01246.2509214,E,4,07,1.0,195.790,M,35.049,M,3.2,*48
$GPRMC,170914.60,A,5746.8369779,N,01246.2524685,E,4.90,47.53,040716,0.0,E,D*06
$GPGGA,170914.60,5746.8369779,N,01246.2524685,E,4,07,1.0,195.784,M,35.049,M,3.8,*4D
$GPRMC,170914.70,A,5746.8369271,N,01246.2527219,E,2.66,103.71,040716,0.0,E,D*36
$GPGGA,170914.70,5746.8369271,N,01246.2527219,E,4,07,1.0,195.754,M,35.049,M,3.9,*4F
$GPRMC,170914.80,A,5746.8368961,N,01246.2529669,E,7.31,81.80,040716,0.0,E,D*0D
$GPGGA,170914.80,5746.8368961,N,01246.2529669,E,4,07,1.0,195.771,M,35.049,M,4.0,*4F
$GPRMC,170914.90,A,5746.8368619,N,01246.2532132,E,4.66,104.68,040716,0.0,E,D*34
$GPGGA,170914.90,5746.8368619,N,01246.2532132,E,4,07,1.0,195.776,M,35.049,M,4.1,*4B
$GPRMC,170915.10,A,5746.8367682,N,01246.2537028,E,14.68,109.90,040716,0.0,E,D*0A
$GPGGA,170915.10,5746.8367682,N,01246.2537028,E,4,07,1.0,195.776,M,35.049,M,4.3,*42
$GPRMC,170915.20,A,5746.8367132,N,01246.2539458,E,12.57,150.89,040716,0.0,E,D*06
$GPGGA,170915.20,5746.8367132,N,01246.2539458,E,4,07,1.0,195.770,M,35.049,M,4.4,*41
$GPRMC,170915.30,A,5746.8366575,N,01246.2541822,E,6.47,133.67,040716,0.0,E,D*3E
$GPGGA,170915.30,5746.8366575,N,01246.2541822,E,4,07,1.0,195.770,M,35.049,M,4.5,*49
$GPRMC,170915.40,A,5746.8365989,N,01246.2544164,E,7.84,150.28,040716,0.0,E,D*3B
$GPGGA,170915.40,5746.8365989,N,01246.2544164,E,4,07,1.0,195.778,M,35.049,M,4.6,*47
$GPRMC,170915.50,A,5746.8365374,N,01246.2546491,E,3.47,58.13,040716,0.0,E,D*05
$GPGGA,170915.50,5746.8365374,N,01246.2546491,E,4,07,1.0,195.785,M,35.049,M,4.7,*40
$GPRMC,170916.00,A,5746.8361543,N,01246.2557538,E,12.69,79.15,040716,0.0,E,D*3E
$GPGGA,170916.00,5746.8361543,N,01246.2557538,E,4,07,1.0,195.753,M,35.049,M,1.2,*49
$GPGSA,A,3,08,10,11,16,18,21,27,,,,,,1.9,1.2,1.4,1*20
$GPGSV,2,1,07,08,63,277,49,10,64,120,49,11,22,273,45,16,18,197,41,1*6C
$GPGSV,2,2,07,18,42,066,48,21,16,085,40,27,68,169,48,,,,,1*54
$GPGSA,A,3,08,10,11,16,18,21,27,,,,,,1.9,1.2,1.4,1*20
$GPGSV,2,1,07,08,63,277,49,10,64,120,49,11,22,273,45,16,18,197,41,1*6C
$GPGSV,2,2,07,18,42,066,48,21,16,085,40,27,68,169,48,,,,,1*54
$GPGSA,A,3,08,10,11,16,18,21,27,,,,,,1.9,1.2,1.4,1*20
$GPGSV,2,1,07,08,63,277,49,10,64,120,49,11,22,273,45,16,18,197,41,1*6C
$GPGSV,2,2,07,18,42,066,48,21,16,085,40,27,68,169,48,,,,,1*54
$GPGSA,A,3,08,10,11,16,18,21,27,,,,,,1.9,1.2,1.4,1*20
$GPGSV,2,1,07,08,63,277,49,10,64,120,49,11,22,273,45,16,18,197,41,1*6C
$GPGSV,2,2,07,18,42,066,48,21,16,085,40,27,68,169,48,,,,,1*54
$GPRMC,170916.50,A,5746.8357097,N,01246.2567564,E,6.72,158.80,040716,0.0,E,D*39
$GPGGA,170916.50,5746.8357097,N,01246.2567564,E,4,07,1.0,195.719,M,35.049,M,1.7,*44
$GPGSA,A,3,08,10,11,16,18,21,27,,,,,,1.9,1.2,1.4,1*20
$GPGSV,2,1,07,08,63,277,49,10,64,120,49,11,22,273,45,16,18,197,41,1*6C
$GPGSV,2,2,07,18,42,066,48,21,16,085,40,27,68,169,48,,,,,1*54
$GPGSA,A,3,08,10,11,16,18,21,27,,,,,,1.9,1.2,1.4,1*20
$GPGSV,2,1,07,08,63,277,49,10,64,120,49,11,22,273,45,16,18,197,41,1*6C
$GPGSV,2,2,07,18,42,066,48,21,16,085,40,27,68,169,48,,,,,1*54
$GPRMC,170916.90,A,5746.8353184,N,01246.2575033,E,6.96,115.11,040716,0.0,E,D*3D
$GPGGA,170916.90,5746.8353184,N,01246.2575033,E,4,07,1.0,195.712,M,35.049,M,2.1,*45
$GPRMC,170917.00,A,5746.8352147,N,01246.2576822,E,4.61,108.20,040716,0.0,E,D*34
$GPGGA,170917.00,5746.8352147,N,01246.2576822,E,4,07,1.0,195.714,M,35.049,M,2.2,*4D
$GPRMC,170917.10,A,5746.8351134,N,01246.2578535,E,4.67,81.75,040716,0.0,E,D*01
$GPGGA,170917.10,5746.8351134,N,01246.2578535,E,4,07,1.0,195.715,M,35.049,M,2.3,*4E
$GPRMC,170917.20,A,5746.8350073,N,01246.2580145,E,4.79,130.47,040716,0.0,E,D*30
$GPGGA,170917.20,5746.8350073,N,01246.2580145,E,4,07,1.0,195.716,M,35.049,M,2.4,*4E
$GPRMC,170917.30,A,5746.8348942,N,01246.2581737,E,2.78,98.37,040716,0.0,E,D*02
$GPGGA,170917.30,5746.8348942,N,01246.2581737,E,4,07,1.0,195.715,M,35.049,M,2.5,*4D
$GPRMC,170917.40,A,5746.8347807,N,01246.2583219,E,6.58,144.33,040716,0.0,E,D*33
$GPGGA,170917.40,5746.8347807,N,01246.2583219,E,4,07,1.0,195.713,M,35.049,M,2.6,*4B
$GPRMC,170917.50,A,5746.8346662,N,01246.2584596,E,7.02,156.69,040716,0.0,E,D*3B
$GPGGA,170917.50,5746.8346662,N,01246.2584596,E,4,07,1.0,195.711,M,35.049,M,2.7,*42
$GPRMC,170917.60,A,5746.8345434,N,01246.2585967,E,6.25,127.64,040716,0.0,E,D*36
$GPGGA,170917.60,5746.8345434,N,01246.2585967,E,4,07,1.0,195.706,M,35.049,M,2.8,*49
$GPRMC,170917.70,A,5746.8344216,N,01246.2587201,E,4.27,166.44,040716,0.0,E,D*3E
$GPGGA,170917.70,5746.8344216,N,01246.2587201,E,4,07,1.0,195.707,M,35.049,M,2.9,*46
$GPRMC,170917.80,A,5746.8342971,N,01246.2588456,E,4.42,165.22,040716,0.0,E,D*36
$GPGGA,170917.80,5746.8342971,N,01246.2588456,E,4,07,1.0,195.704,M,35.049,M,3.0,*45
$GPRMC,170917.90,A,5746.8341742,N,01246.2589563,E,7.49,155.94,040716,0.0,E,D*3A
$GPGGA,170917.90,5746.8341742,N,01246.2589563,E,4,07,1.0,195.703,M,35.049,M,3.1,*49
$GPRMC,170918.00,A,5746.8340443,N,01246.2590493,E,6.10,151.42,040716,0.0,E,D*3B
$GPGGA,170918.00,5746.8340443,N,01246.2590493,E,4,07,1.0,195.700,M,35.049,M,1.2,*48
$GPRMC,170918.60,A,5746.8332523,N,01246.2595949,E,4.56,157.60,040716,0.0,E,D*36
$GPGGA,170918.60,5746.8332523,N,01246.2595949,E,4,07,1.0,195.661,M,35.049,M,1.8,*4F
$GPRMC,170919.00,A,5746.8327221,N,01246.2598508,E,7.97,174.65,040716,0.0,E,D*3E
$GPGGA,170919.00,5746.8327221,N,01246.2598508,E,4,07,1.0,195.702,M,35.049,M,2.2,*40
$GPGSA,A,3,08,10,11,16,18,21,27,,,,,,1.9,1.2,1.4,1*20
$GPGSV,2,1,07,08,64,277,49,10,64,120,50,11,22,273,44,16,18,197,39,1*6D
$GPGSV,2,2,07,18,42,066,48,21,16,085,41,27,68,169,48,,,,,1*55
$GPGSA,A,3,08,10,11,16,18,21,27,,,,,,1.9,1.2,1.4,1*20
$GPGSV,2,1,07,08,64,277,49,10,64,120,50,11,22,273,44,16,18,197,39,1*6D
$GPGSV,2,2,07,18,42,066,48,21,16,085,41,27,68,169,48,,,,,1*55
$GPRMC,170919.20,A,5746.8324391,N,01246.2599420,E,6.66,162.30,040716,0.0,E,D*37
$GPGGA,170919.20,5746.8324391,N,01246.2599420,E,4,07,1.0,195.692,M,35.049,M,2.4,*4F
$GPGSA,A,3,08,10,11,16,18,21,27,,,,,,1.9,1.2,1.4,1*20
$GPGSV,2,1,07,08,64,277,49,10,64,120,50,11,22,273,44,16,18,197,39,1*6D
$GPGSV,2,2,07,18,42,066,48,21,16,085,41,27,68,169,48,,,,,1*55
$GPRMC,170919.80,A,5746.8315977,N,01246.2600113,E,4.40,245.58,040716,0.0,E,D*35
$GPGGA,170919.80,5746.8315977,N,01246.2600113,E,4,07,1.0,195.674,M,35.049,M,3.0,*4E
$GPRMC,170920.30,A,5746.8309008,N,01246.2598619,E,3.42,209.39,040716,0.0,E,D*3D
$GPGGA,170920.30,5746.8309008,N,01246.2598619,E,4,07,1.0,195.635,M,35.049,M,3.5,*4C
$GPGSA,A,3,08,10,11,16,18,21,27,,,,,,1.9,1.2,1.4,1*20
$GPGSV,2,1,07,08,64,277,49,10,64,120,50,11,22,273,45,16,18,197,38,1*6D
$GPGSV,2,2,07,18,42,066,48,21,16,085,41,27,68,169,48,,,,,1*55
$GPGSA,A,3,08,10,11,16,18,21,27,,,,,,1.9,1.2,1.4,1*20
$GPGSV,2,1,07,08,64,277,49,10,64,120,50,11,22,273,45,16,18,197,38,1*6D
$GPGSV,2,2,07,18,42,066,48,21,16,085,41,27,68,169,48,,,,,1*55
$GPGSA,A,3,08,10,11,16,18,21,27,,,,,,1.9,1.2,1.4,1*20
$GPGSV,2,1,07,08,64,277,49,10,64,120,50,11,22,273,45,16,18,197,38,1*6D
$GPGSV,2,2,07,18,42,066,48,21,16,085,41,27,68,169,48,,,,,1*55
$GPGSA,A,3,08,10,11,16,18,21,27,,,,,,1.9,1.2,1.4,1*20
$GPGSV,2,1,07,08,64,277,49,10,64,120,50,11,22,273,45,16,18,197,39,1*6C
$GPGSV,2,2,07,18,42,066,48,21,16,085,40,27,68,169,48,,,,,1*54
$GPGSA,A,3,08,10,11,16,18,21,27,,,,,,1.9,1.2,1.4,1*20
$GPGSV,2,1,07,08,64,277,49,10,64,120,50,11,22,273,45,16,18,197,39,1*6C
$GPGSV,2,2,07,18,42,066,48,21,16,085,40,27,68,169,48,,,,,1*54
$GPGSA,A,3,08,10,11,16,18,21,27,,,,,,1.9,1.2,1.4,1*20
$GPGSV,2,1,07,08,64,277,49,10,64,120,50,11,22,273,45,16,18,197,39,1*6C
$GPGSV,2,2,07,18,42,066,48,21,16,085,40,27,68,169,48,,,,,1*54
$GPGSA,A,3,08,10,11,16,18,21,27,,,,,,1.9,1.2,1.4,1*20
$GPGSV,2,1,07,08,64,277,49,10,64,120,50,11,22,273,45,16,18,197,39,1*6C
$GPGSV,2,2,07,18,42,066,48,21,16,085,40,27,68,169,48,,,,,1*54
$GPGSA,A,3,08,10,11,16,18,21,27,,,,,,1.9,1.2,1.4,1*20
$GPGSV,2,1,07,08,64,277,49,10,64,120,50,11,22,273,45,16,18,197,39,1*6C
$GPGSV,2,2,07,18,42,066,48,21,16,085,40,27,68,169,48,,,,,1*54
$GPGSA,A,3,08,10,11,16,18,21,27,,,,,,1.9,1.2,1.4,1*20
$GPGSV,2,1,07,08,64,277,49,10,64,120,50,11,22,273,44,16,18,197,39,1*6D
$GPGSV,2,2,07,18,42,066,49,21,16,085,41,27,68,169,48,,,,,1*54
$GPRMC,170922.40,A,5746.8282635,N,01246.2575762,E,5.67,250.26,040716,0.0,E,D*3F
$GPGGA,170922.40,5746.8282635,N,01246.2575762,E,5,07,1.0,195.564,M,35.049,M,1.6,*4A
$GPRMC,170922.50,A,5746.8281644,N,01246.2573886,E,8.77,208.80,040716,0.0,E,D*35
$GPGGA,170922.50,5746.8281644,N,01246.2573886,E,5,07,1.0,195.565,M,35.049,M,1.7,*4D
$GPRMC,170922.60,A,5746.8280708,N,01246.2571937,E,8.36,212.18,040716,0.0,E,D*38
$GPGGA,170922.60,5746.8280708,N,01246.2571937,E,5,07,1.0,195.573,M,35.049,M,1.8,*47
$GPRMC,170922.70,A,5746.8279814,N,01246.2569941,E,7.07,270.69,040716,0.0,E,D*3A
$GPGGA,170922.70,5746.8279814,N,01246.2569941,E,5,07,1.0,195.576,M,35.049,M,1.9,*4E
$GPGSA,A,3,08,10,11,16,18,21,27,,,,,,1.9,1.2,1.4,1*20
$GPGSV,2,1,07,08,64,277,49,10,64,120,50,11,22,273,44,16,18,197,39,1*6D
$GPGSV,2,2,07,18,42,066,49,21,16,085,41,27,68,169,48,,,,,1*54
$GPRMC,170924.00,A,5746.8269838,N,01246.2541730,E,6.30,228.11,040716,0.0,E,D*31
$GPGGA,170924.00,5746.8269838,N,01246.2541730,E,5,07,1.0,195.543,M,35.050,M,3.2,*45
$GPGSA,A,3,08,10,11,16,18,21,27,,,,,,1.9,1.2,1.4,1*20
$GPGSV,2,1,07,08,64,277,48,10,64,120,50,11,22,273,43,16,18,197,41,1*64
$GPGSV,2,2,07,18,42,066,48,21,16,085,43,27,68,169,49,,,,,1*56
$GPGSA,A,3,08,10,11,16,18,21,27,,,,,,1.9,1.2,1.4,1*20
$GPGSV,2,1,07,08,64,277,48,10,64,120,50,11,22,273,43,16,18,197,41,1*64
$GPGSV,2,2,07,18,42,066,48,21,16,085,43,27,68,169,49,,,,,1*56
$GPGSA,A,3,08,10,11,16,18,21,27,,,,,,1.9,1.2,1.4,1*20
$GPGSV,2,1,07,08,64,277,48,10,64,120,50,11,22,273,43,16,18,197,41,1*64
$GPGSV,2,2,07,18,42,066,48,21,16,085,43,27,68,169,49,,,,,1*56
$GPGSA,A,3,08,10,11,16,18,21,27,,,,,,1.9,1.2,1.4,1*20
$GPGSV,2,1,07,08,64,277,48,10,64,120,50,11,22,273,43,16,18,197,41,1*64
$GPGSV,2,2,07,18,42,066,48,21,16,085,43,27,68,169,49,,,,,1*56
$GPRMC,170924.80,A,5746.8266142,N,01246.2522106,E,8.89,216.13,040716,0.0,E,D*37
$GPGGA,170924.80,5746.8266142,N,01246.2522106,E,5,07,1.0,195.562,M,35.050,M,4.0,*46
$GPGSA,A,3,08,10,11,16,18,21,27,,,,,,1.9,1.2,1.4,1*20
$GPGSV,2,1,07,08,64,277,48,10,64,120,50,11,22,273,43,16,18,197,41,1*64
$GPGSV,2,2,07,18,42,066,48,21,16,085,43,27,68,169,49,,,,,1*56
$GPGSA,A,3,08,10,11,16,18,21,27,,,,,,1.9,1.2,1.4,1*20
$GPGSV,2,1,07,08,64,277,48,10,64,120,50,11,22,273,43,16,18,197,41,1*64
$GPGSV,2,2,07,18,42,066,48,21,16,085,43,27,68,169,49,,,,,1*56
$GPRMC,170925.10,A,5746.8265514,N,01246.2514416,E,6.46,285.86,040716,0.0,E,D*31
$GPGGA,170925.10,5746.8265514,N,01246.2514416,E,5,07,1.0,195.567,M,35.050,M,4.3,*4D
$GPGSA,A,3,08,10,11,16,18,21,27,,,,,,1.9,1.2,1.4,1*20
$GPGSV,2,1,07,08,64,277,48,10,64,120,50,11,22,273,42,16,18,197,41,1*65
$GPGSV,2,2,07,18,42,066,48,21,16,085,43,27,68,169,49,,,,,1*56
$GPGSA,A,3,08,10,11,16,18,21,27,,,,,,1.9,1.2,1.4,1*20
$GPGSV,2,1,07,08,64,277,48,10,64,120,50,11,22,273,42,16,18,197,41,1*65
$GPGSV,2,2,07,18,42,066,48,21,16,085,43,27,68,169,49,,,,,1*56
$GPGSA,A,3,08,10,11,16,18,21,27,,,,,,1.9,1.2,1.4,1*20
$GPGSV,2,1,07,08,64,277,48,10,64,120,50,11,22,273,42,16,18,197,41,1*65
$GPGSV,2,2,07,18,42,066,48,21,16,085,43,27,68,169,49,,,,,1*56
$GPRMC,170925.40,A,5746.8265171,N,01246.2506622,E,6.92,232.57,040716,0.0,E,D*3C
$GPGGA,170925.40,5746.8265171,N,01246.2506622,E,5,07,1.0,195.573,M,35.050,M,4.6,*49
$GPRMC,170925.50,A,5746.8265071,N,01246.2504018,E,5.14,289.18,040716,0.0,E,D*37
$GPGGA,170925.50,5746.8265071,N,01246.2504018,E,5,07,1.0,195.580,M,35.050,M,4.7,*49
$GPGSA,A,3,08,10,11,16,18,21,27,,,,,,1.9,1.2,1.4,1*20
$GPGSV,2,1,07,08,64,277,48,10,64,120,50,11,22,273,42,16,18,197,41,1*65
$GPGSV,2,2,07,18,42,066,48,21,16,085,43,27,68,169,49,,,,,1*56
$GPGSA,A,3,08,10,11,16,18,21,27,,,,,,1.9,1.2,1.4,1*20
$GPGSV,2,1,07,08,64,277,48,10,64,120,50,11,22,273,42,16,18,197,41,1*65
$GPGSV,2,2,07,18,42,066,48,21,16,085,43,27,68,169,49,,,,,1*56
$GPRMC,170925.80,A,5746.8264860,N,01246.2496228,E,8.45,256.24,040716,0.0,E,D*3C
$GPGGA,170925.80,5746.8264860,N,01246.2496228,E,5,07,1.0,195.564,M,35.050,M,5.0,*4A
$GPRMC,170925.90,A,5746.8264881,N,01246.2493619,E,11.08,245.41,040716,0.0,E,D*01
$GPGGA,170925.90,5746.8264881,N,01246.2493619,E,5,07,1.0,195.564,M,35.050,M,5.1,*46
$GPGSA,A,3,08,10,11,16,18,21,27,,,,,,1.9,1.2,1.4,1*20
$GPGSV,2,1,07,08,64,277,48,10,64,120,50,11,22,273,42,16,18,197,41,1*65
$GPGSV,2,2,07,18,42,066,48,21,16,085,43,27,68,169,49,,,,,1*56
$GPRMC,170926.00,A,5746.8265010,N,01246.2491002,E,7.26,223.52,040716,0.0,E,D*3D
$GPGGA,170926.00,5746.8265010,N,01246.2491002,E,5,07,1.0,195.573,M,35.050,M,5.2,*46
$GPRMC,170926.10,A,5746.8265200,N,01246.2488409,E,8.10,298.44,040716,0.0,E,D*35
$GPGGA,170926.10,5746.8265200,N,01246.2488409,E,5,07,1.0,195.578,M,35.050,M,5.3,*49
$GPGSA,A,3,08,10,11,16,18,21,27,,,,,,1.9,1.2,1.4,1*20
$GPGSV,2,1,07,08,64,277,48,10,64,120,50,11,22,273,43,16,18,197,39,1*6B
$GPGSV,2,2,07,18,42,066,48,21,16,085,44,27,68,169,49,,,,,1*51
$GPGSA,A,3,08,10,11,16,18,21,27,,,,,,1.9,1.2,1.4,1*20
$GPGSV,2,1,07,08,64,277,48,10,64,120,50,11,22,273,43,16,18,197,39,1*6B
$GPGSV,2,2,07,18,42,066,48,21,16,085,44,27,68,169,49,,,,,1*51
$GPRMC,170926.30,A,5746.8265633,N,01246.2483268,E,8.82,299.13,040716,0.0,E,D*31
$GPGGA,170926.30,5746.8265633,N,01246.2483268,E,5,07,1.0,195.595,M,35.050,M,5.5,*40
$GPRMC,170926.40,A,5746.8265922,N,01246.2480643,E,5.61,274.26,040716,0.0,E,D*32
$GPGGA,170926.40,5746.8265922,N,01246.2480643,E,5,07,1.0,195.595,M,35.050,M,5.6,*45
$GPGSA,A,3,08,10,11,16,18,21,27,,,,,,1.9,1.2,1.4,1*20
$GPGSV,2,1,07,08,64,277,48,10,64,120,50,11,22,273,43,16,18,197,39,1*6B
$GPGSV,2,2,07,18,42,066,48,21,16,085,44,27,68,169,49,,,,,1*51
$GPGSA,A,3,08,10,11,16,18,21,27,,,,,,1.9,1.2,1.4,1*20
$GPGSV,2,1,07,08,64,277,48,10,64,120,50,11,22,273,43,16,18,197,39,1*6B
$GPGSV,2,2,07,18,42,066,48,21,16,085,44,27,68,169,49,,,,,1*51
$GPGSA,A,3,08,10,11,16,18,21,27,,,,,,1.9,1.2,1.4,1*20
$GPGSV,2,1,07,08,64,277,48,10,64,120,50,11,22,273,42,16,18,197,41,1*65
$GPGSV,2,2,07,18,42,066,48,21,16,085,43,27,68,169,49,,,,,1*56
$GPRMC,170927.20,A,5746.8269376,N,01246.2460992,E,7.54,285.61,040716,0.0,E,D*36
$GPGGA,170927.20,5746.8269376,N,01246.2460992,E,5,07,1.0,195.589,M,35.050,M,6.4,*44
$GPRMC,170927.40,A,5746.8270557,N,01246.2456357,E,6.18,319.28,040716,0.0,E,D*3B
$GPGGA,170927.40,5746.8270557,N,01246.2456357,E,5,07,1.0,195.595,M,35.050,M,6.6,*46
$GPGSA,A,3,08,10,11,16,18,21,27,,,,,,1.9,1.2,1.4,1*20
$GPGSV,2,1,07,08,64,277,49,10,64,120,50,11,22,273,43,16,18,197,42,1*66
$GPGSV,2,2,07,18,42,066,48,21,16,085,42,27,68,169,49,,,,,1*57
$GPRMC,170928.80,A,5746.8281968,N,01246.2427192,E,3.03,230.29,040716,0.0,E,D*3F
$GPGGA,170928.80,5746.8281968,N,01246.2427192,E,5,07,1.0,195.605,M,35.050,M,2.0,*4E
$GPGSA,A,3,08,10,11,16,18,21,27,,,,,,1.9,1.2,1.4,1*20
$GPGSV,2,1,07,08,64,277,49,10,64,120,50,11,22,273,43,16,18,197,42,1*66
$GPGSV,2,2,07,18,42,066,48,21,16,085,42,27,68,169,49,,,,,1*57
$GPRMC,170929.00,A,5746.8284061,N,01246.2423799,E,7.93,323.57,040716,0.0,E,D*3D
$GPGGA,170929.00,5746.8284061,N,01246.2423799,E,5,07,1.0,195.605,M,35.050,M,2.2,*49
$GPGSA,A,3,08,10,11,16,18,21,27,,,,,,1.9,1.2,1.4,1*20
$GPGSV,2,1,07,08,64,277,49,10,64,120,50,11,22,273,45,16,18,197,41,1*63
$GPGSV,2,2,07,18,42,066,48,21,16,085,40,27,68,169,49,,,,,1*55
$GPRMC,170929.10,A,5746.8285218,N,01246.2422223,E,6.80,342.59,040716,0.0,E,D*3E
$GPGGA,170929.10,5746.8285218,N,01246.2422223,E,5,07,1.0,195.628,M,35.050,M,2.3,*4E
$GPGSA,A,3,08,10,11,16,18,21,27,,,,,,1.9,1.2,1.4,1*20
$GPGSV,2,1,07,08,64,277,49,10,64,120,50,11,22,273,45,16,18,197,41,1*63
$GPGSV,2,2,07,18,42,066,48,21,16,085,40,27,68,169,49,,,,,1*55
$GPRMC,170929.20,A,5746.8286397,N,01246.2420678,E,4.13,277.33,040716,0.0,E,D*33
$GPGGA,170929.20,5746.8286397,N,01246.2420678,E,5,07,1.0,195.628,M,35.050,M,2.4,*47
$GPGSA,A,3,08,10,11,16,18,21,27,,,,,,1.9,1.2,1.4,1*20
$GPGSV,2,1,07,08,64,277,49,10,64,120,50,11,22,273,45,16,18,197,41,1*63
$GPGSV,2,2,07,18,42,066,48,21,16,085,40,27,68,169,49,,,,,1*55
$GPRMC,170929.30,A,5746.8287496,N,01246.2419215,E,9.84,349.56,040716,0.0,E,D*3C
$GPGGA,170929.30,5746.8287496,N,01246.2419215,E,5,07,1.0,195.629,M,35.050,M,2.5,*44
$GPGSA,A,3,08,10,11,16,18,21,27,,,,,,1.9,1.2,1.4,1*20
$GPGSV,2,1,07,08,64,277,49,10,64,120,50,11,22,273,45,16,18,197,41,1*63
$GPGSV,2,2,07,18,42,066,48,21,16,085,40,27,68,169,49,,,,,1*55
$GPRMC,170929.40,A,5746.8288672,N,01246.2417762,E,10.50,311.25,040716,0.0,E,D*0F
$GPGGA,170929.40,5746.8288672,N,01246.2417762,E,5,07,1.0,195.648,M,35.050,M,2.6,*4B
$GPRMC,170929.50,A,5746.8289806,N,01246.2416391,E,5.69,304.26,040716,0.0,E,D*32
$GPGGA,170929.50,5746.8289806,N,01246.2416391,E,5,07,1.0,195.655,M,35.050,M,2.7,*42
$GPGSA,A,3,08,10,11,16,18,21,27,,,,,,1.9,1.2,1.4,1*20
$GPGSV,2,1,07,08,64,277,49,10,64,120,50,11,22,273,45,16,18,197,41,1*63
$GPGSV,2,2,07,18,42,066,48,21,16,085,40,27,68,169,49,,,,,1*55
$GPRMC,170929.60,A,5746.8290992,N,01246.2415096,E,5.33,356.57,040716,0.0,E,D*3C
$GPGGA,170929.60,5746.8290992,N,01246.2415096,E,5,07,1.0,195.652,M,35.050,M,2.8,*4A
$GPGSA,A,3,08,10,11,16,18,21,27,,,,,,1.9,1.2,1.4,1*20
$GPGSV,2,1,07,08,64,277,49,10,64,120,50,11,22,273,45,16,18,197,41,1*63
$GPGSV,2,2,07,18,42,066,48,21,16,085,40,27,68,169,49,,,,,1*55
$GPRMC,170929.70,A,5746.8292201,N,01246.2413775,E,5.22,338.18,040716,0.0,E,D*31
$GPGGA,170929.70,5746.8292201,N,01246.2413775,E,5,07,1.0,195.650,M,35.050,M,2.9,*47
$GPGSA,A,3,08,10,11,16,18,21,27,,,,,,1.9,1.2,1.4,1*20
$GPGSV,2,1,07,08,64,277,49,10,64,120,50,11,22,273,45,16,18,197,41,1*63
$GPGSV,2,2,07,18,42,066,48,21,16,085,40,27,68,169,49,,,,,1*55
$GPRMC,170929.80,A,5746.8293482,N,01246.2412573,E,3.29,338.08,040716,0.0,E,D*3B
$GPGGA,170929.80,5746.8293482,N,01246.2412573,E,5,07,1.0,195.684,M,35.050,M,3.0,*40
$GPRMC,170929.90,A,5746.8294747,N,01246.2411308,E,5.86,348.75,040716,0.0,E,D*30
$GPGGA,170929.90,5746.8294747,N,01246.2411308,E,5,07,1.0,195.660,M,35.050,M,3.1,*4E
$GPGSA,A,3,08,10,11,16,18,21,27,,,,,,1.9,1.2,1.4,1*20
$GPGSV,2,1,07,08,64,277,49,10,64,120,50,11,22,273,45,16,18,197,41,1*63
$GPGSV,2,2,07,18,42,066,48,21,16,085,40,27,68,169,49,,,,,1*55
$GPRMC,170930.00,A,5746.8295769,N,01246.2410045,E,9.39,356.76,040716,0.0,E,D*33
$GPGGA,170930.00,5746.8295769,N,01246.2410045,E,5,07,1.0,195.585,M,35.050,M,1.2,*40
$GPGSA,A,3,08,10,11,16,18,21,27,,,,,,1.9,1.2,1.4,1*20
$GPGSV,2,1,07,08,64,277,49,10,64,120,50,11,22,273,45,16,18,197,42,1*60
$GPGSV,2,2,07,18,42,066,47,21,16,085,40,27,68,169,49,,,,,1*5A
$GPRMC,170930.20,A,5746.8298137,N,01246.2407761,E,9.60,352.39,040716,0.0,E,D*35
$GPGGA,170930.20,5746.8298137,N,01246.2407761,E,5,07,1.0,195.477,M,35.050,M,1.4,*4F
$GPRMC,170930.30,A,5746.8299398,N,01246.2406724,E,2.85,204.43,040716,0.0,E,D*3D
$GPGGA,170930.30,5746.8299398,N,01246.2406724,E,5,07,1.0,195.467,M,35.050,M,1.5,*48
$GPGSA,A,3,08,10,11,16,18,21,27,,,,,,1.9,1.2,1.4,1*20
$GPGSV,2,1,07,08,64,277,49,10,64,120,50,11,22,273,45,16,18,197,42,1*60
$GPGSV,2,2,07,18,42,066,47,21,16,085,40,27,68,169,49,,,,,1*5A
$GPRMC,170930.40,A,5746.8300640,N,01246.2405734,E,5.08,322.19,040716,0.0,E,D*31
$GPGGA,170930.40,5746.8300640,N,01246.2405734,E,5,07,1.0,195.442,M,35.050,M,1.6,*48
$GPRMC,170930.50,A,5746.8301996,N,01246.2405003,E,3.73,27.40,040716,0.0,E,D*06
$GPGGA,170930.50,5746.8301996,N,01246.2405003,E,5,07,1.0,195.446,M,35.050,M,1.7,*4A
$GPGSA,A,3,08,10,11,16,18,21,27,,,,,,1.9,1.2,1.4,1*20
$GPGSV,2,1,07,08,64,277,49,10,64,120,50,11,22,273,45,16,18,197,42,1*60
$GPGSV,2,2,07,18,42,066,47,21,16,085,40,27,68,169,49,,,,,1*5A
$GPRMC,170930.60,A,5746.8303334,N,01246.2404247,E,3.06,9.24,040716,0.0,E,D*3A
$GPGGA,170930.60,5746.8303334,N,01246.2404247,E,5,07,1.0,195.457,M,35.050,M,1.8,*45
$GPRMC,170930.70,A,5746.8304717,N,01246.2403755,E,10.57,349.84,040716,0.0,E,D*03
$GPGGA,170930.70,5746.8304717,N,01246.2403755,E,5,07,1.0,195.465,M,35.050,M,1.9,*47
$GPGSA,A,3,08,10,11,16,18,21,27,,,,,,1.9,1.2,1.4,1*20
$GPGSV,2,1,07,08,64,277,49,10,64,120,50,11,22,273,45,16,18,197,42,1*60
$GPGSV,2,2,07,18,42,066,47,21,16,085,40,27,68,169,49,,,,,1*5A
$GPRMC,170930.80,A,5746.8305992,N,01246.2403241,E,0.98,349.84,040716,0.0,E,D*3C
$GPGGA,170930.80,5746.8305992,N,01246.2403241,E,5,07,1.0,195.422,M,35.050,M,2.0,*43
$GPRMC,170931.00,A,5746.8308708,N,01246.2402290,E,6.02,1.35,040716,0.0,E,D*38
$GPGGA,170931.00,5746.8308708,N,01246.2402290,E,5,07,1.0,195.394,M,35.050,M,2.2,*4F
$GPGSA,A,3,08,10,11,16,18,21,27,,,,,,1.9,1.2,1.4,1*20
$GPGSV,2,1,07,08,64,277,49,10,64,120,50,11,22,273,44,16,18,197,43,1*60
$GPGSV,2,2,07,18,42,066,46,21,16,085,40,27,68,169,49,,,,,1*5B
$GPGSA,A,3,08,10,11,16,18,21,27,,,,,,1.9,1.2,1.4,1*20
$GPGSV,2,1,07,08,64,277,49,10,64,120,50,11,22,273,44,16,18,197,43,1*60
$GPGSV,2,2,07,18,42,066,46,21,16,085,40,27,68,169,49,,,,,1*5B
$GPRMC,170931.40,A,5746.8314159,N,01246.2401484,E,6.29,359.28,040716,0.0,E,D*38
$GPGGA,170931.40,5746.8314159,N,01246.2401484,E,5,07,1.0,195.335,M,35.050,M,2.6,*4B
$GPRMC,170931.60,A,5746.8316994,N,01246.2401450,E,9.50,2.64,040716,0.0,E,D*3C
$GPGGA,170931.60,5746.8316994,N,01246.2401450,E,5,07,1.0,195.363,M,35.050,M,2.8,*46
$GPRMC,170932.00,A,5746.8322593,N,01246.2401845,E,5.89,1.40,040716,0.0,E,D*30
$GPGGA,170932.00,5746.8322593,N,01246.2401845,E,5,07,1.0,195.393,M,35.050,M,1.2,*41
$GPGSA,A,3,08,10,11,16,18,21,27,,,,,,1.9,1.2,1.4,1*20
$GPGSV,2,1,07,08,64,277,50,10,64,120,49,11,22,273,45,16,18,197,42,1*60
$GPGSV,2,2,07,18,42,066,46,21,16,085,40,27,68,169,49,,,,,1*5B
$GPRMC,170932.10,A,5746.8324016,N,01246.2402003,E,4.41,7.28,040716,0.0,E,D*3B
$GPGGA,170932.10,5746.8324016,N,01246.2402003,E,5,07,1.0,195.408,M,35.050,M,1.3,*43
$GPGSA,A,3,08,10,11,16,18,21,27,,,,,,1.9,1.2,1.4,1*20
$GPGSV,2,1,07,08,64,277,49,10,64,120,49,11,22,273,45,16,18,197,43,1*69
$GPGSV,2,2,07,18,42,066,46,21,16,085,40,27,68,169,49,,,,,1*5B
$GPGSA,A,3,08,10,11,16,18,21,27,,,,,,1.9,1.2,1.4,1*20
$GPGSV,2,1,07,08,64,277,49,10,64,120,50,11,22,273,45,16,18,197,44,1*66
$GPGSV,2,2,07,18,42,066,46,21,16,085,40,27,68,169,49,,,,,1*5B
$GPRMC,170934.50,A,5746.8354032,N,01246.2427420,E,3.88,106.47,040716,0.0,E,D*31
$GPGGA,170934.50,5746.8354032,N,01246.2427420,E,5,07,1.0,195.468,M,35.050,M,1.7,*40
$GPRMC,170934.60,A,5746.8355011,N,01246.2429191,E,5.27,36.72,040716,0.0,E,D*04
$GPGGA,170934.60,5746.8355011,N,01246.2429191,E,5,07,1.0,195.458,M,35.050,M,1.8,*4E
$GPRMC,170934.70,A,5746.8355998,N,01246.2430948,E,7.94,54.84,040716,0.0,E,D*0E
$GPGGA,170934.70,5746.8355998,N,01246.2430948,E,5,07,1.0,195.453,M,35.049,M,1.9,*41
$GPRMC,170934.80,A,5746.8356968,N,01246.2432800,E,5.40,79.80,040716,0.0,E,D*02
$GPGGA,170934.80,5746.8356968,N,01246.2432800,E,5,07,1.0,195.444,M,35.049,M,2.0,*41
$GPRMC,170935.10,A,5746.8359823,N,01246.2438628,E,7.43,112.23,040716,0.0,E,D*31
$GPGGA,170935.10,5746.8359823,N,01246.2438628,E,5,07,1.0,195.452,M,35.049,M,2.3,*42
$GPRMC,170935.40,A,5746.8362279,N,01246.2444820,E,7.15,42.67,040716,0.0,E,D*03
$GPGGA,170935.40,5746.8362279,N,01246.2444820,E,5,07,1.0,195.425,M,35.049,M,2.6,*42
$GPRMC,170936.00,A,5746.8366285,N,01246.2458405,E,3.50,80.20,040716,0.0,E,D*0D
$GPGGA,170936.00,5746.8366285,N,01246.2458405,E,5,07,1.0,195.370,M,35.049,M,1.2,*44
$GPRMC,170936.50,A,5746.8368676,N,01246.2470666,E,7.39,83.94,040716,0.0,E,D*04
$GPGGA,170936.50,5746.8368676,N,01246.2470666,E,5,07,1.0,195.341,M,35.049,M,1.7,*4D
$GPRMC,170936.60,A,5746.8369068,N,01246.2473152,E,6.00,70.31,040716,0.0,E,D*04
$GPGGA,170936.60,5746.8369068,N,01246.2473152,E,5,07,1.0,195.337,M,35.049,M,1.8,*4B
$GPRMC,170936.70,A,5746.8369450,N,01246.2475661,E,6.62,115.31,040716,0.0,E,D*3D
$GPGGA,170936.70,5746.8369450,N,01246.2475661,E,5,07,1.0,195.331,M,35.049,M,1.9,*43
$GPRMC,170937.20,A,5746.8370900,N,01246.2488460,E,7.01,79.20,040716,0.0,E,D*07
$GPGGA,170937.20,5746.8370900,N,01246.2488460,E,5,07,1.0,195.338,M,35.049,M,2.4,*41
$GPRMC,170937.40,A,5746.8371220,N,01246.2493587,E,6.94,111.29,040716,0.0,E,D*30
$GPGGA,170937.40,5746.8371220,N,01246.2493587,E,5,07,1.0,195.335,M,35.049,M,2.6,*42
$GPRMC,170937.60,A,5746.8371454,N,01246.2498743,E,6.51,110.92,040716,0.0,E,D*3E
$GPGGA,170937.60,5746.8371454,N,01246.2498743,E,5,07,1.0,195.346,M,35.049,M,2.8,*4E
$GPRMC,170937.80,A,5746.8371388,N,01246.2503963,E,5.30,116.94,040716,0.0,E,D*3D
$GPGGA,170937.80,5746.8371388,N,01246.2503963,E,5,07,1.0,195.309,M,35.049,M,3.0,*4B
$GPRMC,170938.10,A,5746.8371126,N,01246.2511725,E,10.80,69.35,040716,0.0,E,D*3F
$GPGGA,170938.10,5746.8371126,N,01246.2511725,E,5,07,1.0,195.312,M,35.049,M,1.3,*4F
$GPRMC,170938.20,A,5746.8370922,N,01246.2514278,E,6.28,128.61,040716,0.0,E,D*39
$GPGGA,170938.20,5746.8370922,N,01246.2514278,E,5,07,1.0,195.312,M,35.049,M,1.4,*4E
$GPGSA,A,3,08,10,11,16,18,21,27,,,,,,1.9,1.2,1.4,1*20
$GPGSV,2,1,07,08,64,277,49,10,64,120,49,11,22,273,45,16,18,197,41,1*6B
$GPGSV,2,2,07,18,42,066,48,21,16,085,38,27,68,169,48,,,,,1*5B
$GPRMC,170938.40,A,5746.8370527,N,01246.2519390,E,2.12,110.36,040716,0.0,E,D*38
$GPGGA,170938.40,5746.8370527,N,01246.2519390,E,5,07,1.0,195.334,M,35.049,M,1.6,*4D
$GPGSA,A,3,08,10,11,16,18,21,27,,,,,,1.9,1.2,1.4,1*20
$GPGSV,2,1,07,08,64,277,49,10,64,120,49,11,22,273,45,16,18,197,41,1*6B
$GPGSV,2,2,07,18,42,066,48,21,16,085,38,27,68,169,48,,,,,1*5B
$GPRMC,170938.60,A,5746.8369775,N,01246.2524494,E,7.71,89.78,040716,0.0,E,D*01
$GPGGA,170938.60,5746.8369775,N,01246.2524494,E,5,07,1.0,195.338,M,35.049,M,1.8,*4D
$GPGSA,A,3,08,10,11,16,18,21,27,,,,,,1.9,1.2,1.4,1*20
$GPGSV,2,1,07,08,64,277,49,10,64,120,49,11,22,273,45,16,18,197,41,1*6B
$GPGSV,2,2,07,18,42,066,48,21,16,085,38,27,68,169,48,,,,,1*5B
$GPGSA,A,3,08,10,11,16,18,21,27,,,,,,1.9,1.2,1.4,1*20
$GPGSV,2,1,07,08,64,277,49,10,64,120,49,11,22,273,45,16,18,197,41,1*6B
$GPGSV,2,2,07,18,42,066,48,21,16,085,38,27,68,169,48,,,,,1*5B
$GPRMC,170938.80,A,5746.8369028,N,01246.2529390,E,7.22,114.10,040716,0.0,E,D*33
$GPGGA,170938.80,5746.8369028,N,01246.2529390,E,5,07,1.0,195.339,M,35.049,M,2.0,*48
$GPRMC,170939.00,A,5746.8367990,N,01246.2534373,E,12.46,130.15,040716,0.0,E,D*0A
$GPGGA,170939.00,5746.8367990,N,01246.2534373,E,5,07,1.0,195.320,M,35.049,M,2.2,*4E
$GPRMC,170939.10,A,5746.8367476,N,01246.2536747,E,2.24,133.90,040716,0.0,E,D*34
$GPGGA,170939.10,5746.8367476,N,01246.2536747,E,5,07,1.0,195.322,M,35.049,M,2.3,*48
$GPGSA,A,3,08,10,11,16,18,21,27,,,,,,1.9,1.2,1.4,1*20
$GPGSV,2,1,07,08,64,277,49,10,64,120,49,11,22,273,46,16,18,197,41,1*68
$GPGSV,2,2,07,18,42,066,47,21,16,085,39,27,68,169,49,,,,,1*54
$GPGSA,A,3,08,10,11,16,18,21,27,,,,,,1.9,1.2,1.4,1*20
$GPGSV,2,1,07,08,64,277,49,10,64,120,49,11,22,273,46,16,18,197,41,1*68
$GPGSV,2,2,07,18,42,066,47,21,16,085,39,27,68,169,49,,,,,1*54
$GPGSA,A,3,08,10,11,16,18,21,27,,,,,,1.9,1.2,1.4,1*20
$GPGSV,2,1,07,08,64,277,49,10,64,120,49,11,22,273,46,16,18,197,41,1*68
$GPGSV,2,2,07,18,42,066,47,21,16,085,39,27,68,169,49,,,,,1*54
$GPRMC,170939.40,A,5746.8365817,N,01246.2543865,E,4.90,88.96,040716,0.0,E,D*0B
$GPGGA,170939.40,5746.8365817,N,01246.2543865,E,5,07,1.0,195.321,M,35.049,M,2.6,*4F
$GPGSA,A,3,08,10,11,16,18,21,27,,,,,,1.9,1.2,1.4,1*20
$GPGSV,2,1,07,08,64,277,49,10,64,120,49,11,22,273,46,16,18,197,41,1*68
$GPGSV,2,2,07,18,42,066,47,21,16,085,39,27,68,169,49,,,,,1*54
$GPRMC,170939.60,A,5746.8364474,N,01246.2548503,E,11.02,120.10,040716,0.0,E,D*05
$GPGGA,170939.60,5746.8364474,N,01246.2548503,E,5,07,1.0,195.308,M,35.049,M,2.8,*46
$GPRMC,170939.70,A,5746.8363739,N,01246.2550780,E,11.67,112.80,040716,0.0,E,D*02
$GPGGA,170939.70,5746.8363739,N,01246.2550780,E,5,07,1.0,195.285,M,35.049,M,2.9,*4F
$GPGSA,A,3,08,10,11,16,18,21,27,,,,,,1.9,1.2,1.4,1*20
$GPGSV,2,1,07,08,64,277,49,10,64,120,49,11,22,273,46,16,18,197,41,1*68
$GPGSV,2,2,07,18,42,066,47,21,16,085,39,27,68,169,49,,,,,1*54
$GPRMC,170939.80,A,5746.8362993,N,01246.2553068,E,10.04,72.47,040716,0.0,E,D*38
$GPGGA,170939.80,5746.8362993,N,01246.2553068,E,5,07,1.0,195.265,M,35.049,M,3.0,*4B
$GPRMC,170939.90,A,5746.8362296,N,01246.2555281,E,5.31,128.55,040716,0.0,E,D*3B
$GPGGA,170939.90,5746.8362296,N,01246.2555281,E,5,07,1.0,195.253,M,35.049,M,3.1,*43
$GPGSA,A,3,08,10,11,16,18,21,27,,,,,,1.9,1.2,1.4,1*20
$GPGSV,2,1,07,08,64,277,49,10,64,120,49,11,22,273,46,16,18,197,41,1*68
$GPGSV,2,2,07,18,42,066,47,21,16,085,39,27,68,169,49,,,,,1*54
$GPRMC,170940.00,A,5746.8361515,N,01246.2557481,E,5.39,53.40,040716,0.0,E,D*06
$GPGGA,170940.00,5746.8361515,N,01246.2557481,E,5,07,1.0,195.265,M,35.049,M,1.2,*4B
$GPRMC,170940.10,A,5746.8360691,N,01246.2559697,E,6.01,86.53,040716,0.0,E,D*00
$GPGGA,170940.10,5746.8360691,N,01246.2559697,E,5,07,1.0,195.265,M,35.049,M,1.3,*4E
$GPRMC,170940.20,A,5746.8359870,N,01246.2561903,E,3.29,350.78,040716,0.0,E,D*3F
$GPGGA,170940.20,5746.8359870,N,01246.2561903,E,5,07,1.0,195.257,M,35.049,M,1.4,*49
$GPRMC,170940.30,A,5746.8359120,N,01246.2563925,E,10.73,121.92,040716,0.0,E,D*09
$GPGGA,170940.30,5746.8359120,N,01246.2563925,E,5,07,1.0,195.263,M,35.049,M,1.5,*44
$GPGSA,A,3,08,10,11,16,18,21,27,,,,,,1.9,1.2,1.4,1*20
$GPGSV,2,1,07,08,64,277,49,10,64,120,49,11,22,273,45,16,18,197,41,1*6B
$GPGSV,2,2,07,18,42,066,48,21,16,085,40,27,68,169,48,,,,,1*54
$GPGSA,A,3,08,10,11,16,18,21,27,,,,,,1.9,1.2,1.4,1*20
$GPGSV,2,1,07,08,64,277,49,10,64,120,49,11,22,273,45,16,18,197,41,1*6B
$GPGSV,2,2,07,18,42,066,48,21,16,085,40,27,68,169,48,,,,,1*54
$GPGSA,A,3,08,10,11,16,18,21,27,,,,,,1.9,1.2,1.4,1*20
$GPGSV,2,1,07,08,64,277,49,10,64,120,49,11,22,273,45,16,18,197,41,1*6B
$GPGSV,2,2,07,18,42,066,48,21,16,085,40,27,68,169,48,,,,,1*54
$GPRMC,170941.40,A,5746.8348088,N,01246.2582887,E,6.28,158.81,040716,0.0,E,D*3F
$GPGGA,170941.40,5746.8348088,N,01246.2582887,E,5,07,1.0,195.322,M,35.049,M,1.6,*40
$GPRMC,170941.50,A,5746.8346883,N,01246.2584182,E,2.66,125.68,040716,0.0,E,D*3A
$GPGGA,170941.50,5746.8346883,N,01246.2584182,E,5,07,1.0,195.324,M,35.049,M,1.7,*41
$GPRMC,170941.60,A,5746.8345677,N,01246.2585441,E,4.44,167.29,040716,0.0,E,D*31
$GPGGA,170941.60,5746.8345677,N,01246.2585441,E,5,07,1.0,195.326,M,35.049,M,1.8,*42
$GPGSA,A,3,08,10,11,16,18,21,27,,,,,,1.9,1.2,1.4,1*20
$GPGSV,2,1,07,08,64,276,49,10,64,119,49,11,22,273,44,16,18,197,41,1*61
$GPGSV,2,2,07,18,42,066,48,21,16,085,40,27,68,169,48,,,,,1*54
$GPRMC,170941.70,A,5746.8344438,N,01246.2586674,E,5.02,116.75,040716,0.0,E,D*33
$GPGGA,170941.70,5746.8344438,N,01246.2586674,E,5,07,1.0,195.335,M,35.049,M,1.9,*4F
$GPRMC,170941.80,A,5746.8343209,N,01246.2587819,E,8.38,167.08,040716,0.0,E,D*33
$GPGGA,170941.80,5746.8343209,N,01246.2587819,E,5,07,1.0,195.338,M,35.049,M,2.0,*40
$GPGSA,A,3,08,10,11,16,18,21,27,,,,,,1.9,1.2,1.4,1*20
$GPGSV,2,1,07,08,64,276,49,10,64,119,49,11,22,273,44,16,18,197,41,1*61
$GPGSV,2,2,07,18,42,066,48,21,16,085,40,27,68,169,48,,,,,1*54
$GPRMC,170942.60,A,5746.8332971,N,01246.2595735,E,5.91,190.37,040716,0.0,E,D*34
$GPGGA,170942.60,5746.8332971,N,01246.2595735,E,5,07,1.0,195.360,M,35.049,M,1.8,*4B
$GPRMC,170942.80,A,5746.8330339,N,01246.2597280,E,9.99,172.33,040716,0.0,E,D*3B
$GPGGA,170942.80,5746.8330339,N,01246.2597280,E,5,07,1.0,195.378,M,35.049,M,2.0,*4A
$GPRMC,170943.00,A,5746.8327712,N,01246.2598521,E,3.98,174.26,040716,0.0,E,D*33
$GPGGA,170943.00,5746.8327712,N,01246.2598521,E,5,07,1.0,195.386,M,35.049,M,2.2,*48
$GPRMC,170943.20,A,5746.8324908,N,01246.2599475,E,7.30,209.57,040716,0.0,E,D*3F
$GPGGA,170943.20,5746.8324908,N,01246.2599475,E,5,07,1.0,195.383,M,35.049,M,2.4,*4E
$GPRMC,170943.30,A,5746.8323566,N,01246.2599755,E,4.68,133.46,040716,0.0,E,D*38
$GPGGA,170943.30,5746.8323566,N,01246.2599755,E,5,07,1.0,195.388,M,35.049,M,2.5,*47
$GPGSA,A,3,08,10,11,16,18,21,27,,,,,,1.9,1.2,1.4,1*20
$GPGSV,2,1,07,08,64,276,49,10,64,119,50,11,22,273,45,16,18,197,39,1*67
