$GPRMC,170851.60,A,5746.8201308,N,01246.2691030,E,7.38,311.71,040716,0.0,E,D*3F
$GPGGA,170851.60,5746.8201308,N,01246.2691030,E,5,07,1.0,193.773,M,35.049,M,1.4,*44
$GPGSA,A,3,08,10,11,16,18,21,27,,,,,,1.9,1.2,1.4,1*20
$GPGSV,2,1,07,08,63,277,50,10,64,120,50,11,22,273,41,16,18,197,43,1*6A
$GPGSV,2,2,07,18,42,066,49,21,16,085,42,27,68,170,49,,,,,1*5E
$GPRMC,170851.80,A,5746.8202473,N,01246.2686347,E,3.92,316.55,040716,0.0,E,D*39
$GPGGA,170851.80,5746.8202473,N,01246.2686347,E,5,07,1.0,193.777,M,35.049,M,1.6,*41
$GPGSA,A,3,08,10,11,16,18,21,27,,,,,,1.9,1.2,1.4,1*20
$GPGSV,2,1,07,08,63,277,50,10,64,120,50,11,22,273,41,16,18,197,43,1*6A
$GPGSV,2,2,07,18,42,066,49,21,16,085,42,27,68,170,49,,,,,1*5E
$GPGSA,A,3,08,10,11,16,18,21,27,,,,,,1.9,1.2,1.4,1*20
$GPGSV,2,1,07,08,63,277,50,10,64,120,50,11,22,273,42,16,18,197,46,1*6C
$GPGSV,2,2,07,18,42,066,48,21,16,085,42,27,68,170,49,,,,,1*5F
$GPRMC,170852.10,A,5746.8204388,N,01246.2679412,E,5.81,294.59,040716,0.0,E,D*32
$GPGGA,170852.10,5746.8204388,N,01246.2679412,E,5,07,1.0,193.789,M,35.049,M,0.9,*46
$GPGSA,A,3,08,10,11,16,18,21,27,,,,,,1.9,1.2,1.4,1*20
$GPGSV,2,1,07,08,63,277,50,10,64,120,50,11,22,273,42,16,18,197,46,1*6C
$GPGSV,2,2,07,18,42,066,48,21,16,085,42,27,68,170,49,,,,,1*5F
$GPRMC,170852.20,A,5746.8205033,N,01246.2677116,E,5.33,319.05,040716,0.0,E,D*38
$GPGGA,170852.20,5746.8205033,N,01246.2677116,E,5,07,1.0,193.789,M,35.049,M,1.0,*40
$GPRMC,170852.30,A,5746.8205710,N,01246.2674803,E,5.19,284.37,040716,0.0,E,D*3D
$GPGGA,170852.30,5746.8205710,N,01246.2674803,E,5,07,1.0,193.788,M,35.049,M,1.1,*49
$GPGSA,A,3,08,10,11,16,18,21,27,,,,,,1.9,1.2,1.4,1*20
$GPGSV,2,1,07,08,63,277,50,10,64,120,50,11,22,273,42,16,18,197,46,1*6C
$GPGSV,2,2,07,18,42,066,48,21,16,085,42,27,68,170,49,,,,,1*5F
$GPRMC,170852.40,A,5746.8206404,N,01246.2672558,E,3.76,319.56,040716,0.0,E,D*37
$GPGGA,170852.40,5746.8206404,N,01246.2672558,E,5,07,1.0,193.787,M,35.049,M,1.2,*42
$GPRMC,170852.50,A,5746.8207102,N,01246.2670310,E,6.13,282.67,040716,0.0,E,D*3B
$GPGGA,170852.50,5746.8207102,N,01246.2670310,E,5,07,1.0,193.783,M,35.049,M,1.3,*4C
$GPGSA,A,3,08,10,11,16,18,21,27,,,,,,1.9,1.2,1.4,1*20
$GPGSV,2,1,07,08,63,277,50,10,64,120,50,11,22,273,42,16,18,197,46,1*6C
$GPGSV,2,2,07,18,42,066,48,21,16,085,42,27,68,170,49,,,,,1*5F
$GPRMC,170852.60,A,5746.8207798,N,01246.2668081,E,5.69,315.40,040716,0.0,E,D*3B
$GPGGA,170852.60,5746.8207798,N,01246.2668081,E,5,07,1.0,193.785,M,35.049,M,1.4,*49
$GPRMC,170852.70,A,5746.8208525,N,01246.2665886,E,5.92,299.43,040716,0.0,E,D*31
$GPGGA,170852.70,5746.8208525,N,01246.2665886,E,5,07,1.0,193.784,M,35.049,M,1.5,*41
$GPGSA,A,3,08,10,11,16,18,21,27,,,,,,1.9,1.2,1.4,1*20
$GPGSV,2,1,07,08,63,277,50,10,64,120,50,11,22,273,42,16,18,197,46,1*6C
$GPGSV,2,2,07,18,42,066,48,21,16,085,42,27,68,170,49,,,,,1*5F
$GPRMC,170853.00,A,5746.8210915,N,01246.2659461,E,10.97,317.48,040716,0.0,E,D*06
$GPGGA,170853.00,5746.8210915,N,01246.2659461,E,5,07,1.0,193.797,M,35.049,M,1.8,*44
$GPGSA,A,3,08,10,11,16,18,21,27,,,,,,1.9,1.2,1.4,1*20
$GPGSV,2,1,07,08,63,277,50,10,64,120,50,11,22,273,43,16,18,197,46,1*6D
$GPGSV,2,2,07,18,42,066,47,21,16,085,42,27,68,170,49,,,,,1*50
$GPGSA,A,3,08,10,11,16,18,21,27,,,,,,1.9,1.2,1.4,1*20
$GPGSV,2,1,07,08,63,277,50,10,64,120,50,11,22,273,43,16,18,197,46,1*6D
$GPGSV,2,2,07,18,42,066,47,21,16,085,42,27,68,170,49,,,,,1*50
$GPGSA,A,3,08,10,11,16,18,21,27,,,,,,1.9,1.2,1.4,1*20
$GPGSV,2,1,07,08,63,277,50,10,64,120,50,11,22,273,43,16,18,197,46,1*6D
$GPGSV,2,2,07,18,42,066,47,21,16,085,42,27,68,170,49,,,,,1*50
$GPGSA,A,3,08,10,11,16,18,21,27,,,,,,1.9,1.2,1.4,1*20
$GPGSV,2,1,07,08,63,277,50,10,64,120,50,11,22,273,43,16,18,197,46,1*6D
$GPGSV,2,2,07,18,42,066,47,21,16,085,42,27,68,170,49,,,,,1*50
$GPRMC,170853.70,A,5746.8217716,N,01246.2646501,E,5.71,309.19,040716,0.0,E,D*35
$GPGGA,170853.70,5746.8217716,N,01246.2646501,E,5,07,1.0,193.806,M,35.049,M,2.5,*49
$GPRMC,170854.00,A,5746.8221117,N,01246.2641940,E,3.52,293.51,040716,0.0,E,D*30
$GPGGA,170854.00,5746.8221117,N,01246.2641940,E,5,07,1.0,193.818,M,35.049,M,0.8,*45
$GPRMC,170854.10,A,5746.8222301,N,01246.2640577,E,8.79,268.58,040716,0.0,E,D*31
$GPGGA,170854.10,5746.8222301,N,01246.2640577,E,5,07,1.0,193.816,M,35.049,M,0.9,*44
$GPRMC,170854.20,A,5746.8223529,N,01246.2639307,E,6.96,345.08,040716,0.0,E,D*34
$GPGGA,170854.20,5746.8223529,N,01246.2639307,E,5,07,1.0,193.819,M,35.049,M,1.0,*42
$GPGSA,A,3,08,10,11,16,18,21,27,,,,,,1.9,1.2,1.4,1*20
$GPGSV,2,1,07,08,63,277,49,10,64,120,50,11,22,273,42,16,18,197,45,1*67
$GPGSV,2,2,07,18,42,066,48,21,16,085,42,27,68,170,49,,,,,1*5F
$GPRMC,170854.40,A,5746.8226007,N,01246.2637029,E,6.69,352.88,040716,0.0,E,D*31
$GPGGA,170854.40,5746.8226007,N,01246.2637029,E,5,07,1.0,193.817,M,35.049,M,1.2,*45
$GPRMC,170854.50,A,5746.8227261,N,01246.2636024,E,7.44,333.46,040716,0.0,E,D*34
$GPGGA,170854.50,5746.8227261,N,01246.2636024,E,5,07,1.0,193.822,M,35.049,M,1.3,*4C
$GPRMC,170854.60,A,5746.8228564,N,01246.2635028,E,5.87,328.77,040716,0.0,E,D*30
$GPGGA,170854.60,5746.8228564,N,01246.2635028,E,5,07,1.0,193.821,M,35.049,M,1.4,*49
$GPRMC,170854.70,A,5746.8229833,N,01246.2634099,E,7.44,355.39,040716,0.0,E,D*39
$GPGGA,170854.70,5746.8229833,N,01246.2634099,E,5,07,1.0,193.821,M,35.049,M,1.5,*4C
$GPRMC,170854.90,A,5746.8232506,N,01246.2632343,E,6.49,333.34,040716,0.0,E,D*35
$GPGGA,170854.90,5746.8232506,N,01246.2632343,E,5,07,1.0,193.828,M,35.049,M,1.7,*4A
$GPRMC,170855.00,A,5746.8233826,N,01246.2631521,E,9.83,307.04,040716,0.0,E,D*3F
$GPGGA,170855.00,5746.8233826,N,01246.2631521,E,5,07,1.0,193.828,M,35.049,M,1.8,*42
$GPGSA,A,3,08,10,11,16,18,21,27,,,,,,1.9,1.2,1.4,1*20
$GPGSV,2,1,07,08,63,277,49,10,64,120,49,11,22,273,42,16,18,197,44,1*6E
$GPGSV,2,2,07,18,42,066,48,21,16,085,43,27,68,170,49,,,,,1*5E
$GPGSA,A,3,08,10,11,16,18,21,27,,,,,,1.9,1.2,1.4,1*20
$GPGSV,2,1,07,08,63,277,49,10,64,120,49,11,22,273,42,16,18,197,44,1*6E
$GPGSV,2,2,07,18,42,066,48,21,16,085,43,27,68,170,49,,,,,1*5E
$GPRMC,170855.20,A,5746.8236468,N,01246.2629970,E,4.08,344.04,040716,0.0,E,D*36
$GPGGA,170855.20,5746.8236468,N,01246.2629970,E,5,07,1.0,193.826,M,35.049,M,2.0,*47
$GPGSA,A,3,08,10,11,16,18,21,27,,,,,,1.9,1.2,1.4,1*20
$GPGSV,2,1,07,08,63,277,49,10,64,120,49,11,22,273,42,16,18,197,44,1*6E
$GPGSV,2,2,07,18,42,066,48,21,16,085,43,27,68,170,49,,,,,1*5E
$GPRMC,170855.30,A,5746.8237800,N,01246.2629242,E,5.43,317.79,040716,0.0,E,D*3C
$GPGGA,170855.30,5746.8237800,N,01246.2629242,E,5,07,1.0,193.826,M,35.049,M,2.1,*4E
$GPRMC,170855.40,A,5746.8239131,N,01246.2628513,E,8.27,351.90,040716,0.0,E,D*36
$GPGGA,170855.40,5746.8239131,N,01246.2628513,E,5,07,1.0,193.826,M,35.049,M,2.2,*4D
$GPGSA,A,3,08,10,11,16,18,21,27,,,,,,1.9,1.2,1.4,1*20
$GPGSV,2,1,07,08,63,277,49,10,64,120,49,11,22,273,42,16,18,197,44,1*6E
$GPGSV,2,2,07,18,42,066,48,21,16,085,43,27,68,170,49,,,,,1*5E
$GPRMC,170855.50,A,5746.8240445,N,01246.2627787,E,3.81,335.43,040716,0.0,E,D*34
$GPGGA,170855.50,5746.8240445,N,01246.2627787,E,5,07,1.0,193.823,M,35.049,M,2.3,*40
$GPRMC,170855.60,A,5746.8241786,N,01246.2627136,E,4.94,357.74,040716,0.0,E,D*35
$GPGGA,170855.60,5746.8241786,N,01246.2627136,E,5,07,1.0,193.820,M,35.049,M,2.4,*46
$GPRMC,170855.80,A,5746.8244477,N,01246.2625959,E,9.53,343.23,040716,0.0,E,D*31
$GPGGA,170855.80,5746.8244477,N,01246.2625959,E,5,07,1.0,193.823,M,35.049,M,2.6,*42
$GPRMC,170855.90,A,5746.8245867,N,01246.2625432,E,7.39,351.60,040716,0.0,E,D*3A
$GPGGA,170855.90,5746.8245867,N,01246.2625432,E,5,07,1.0,193.831,M,35.049,M,2.7,*4D
$GPGSA,A,3,08,10,11,16,18,21,27,,,,,,1.9,1.2,1.4,1*20
$GPGSV,2,1,07,08,63,277,49,10,64,120,49,11,22,273,42,16,18,197,44,1*6E
$GPGSV,2,2,07,18,42,066,48,21,16,085,43,27,68,170,49,,,,,1*5E
$GPRMC,170856.00,A,5746.8247240,N,01246.2625045,E,5.98,353.38,040716,0.0,E,D*3F
$GPGGA,170856.00,5746.8247240,N,01246.2625045,E,5,07,1.0,193.827,M,35.049,M,0.8,*44
$GPRMC,170856.10,A,5746.8248610,N,01246.2624712,E,6.43,22.67,040716,0.0,E,D*0E
$GPGGA,170856.10,5746.8248610,N,01246.2624712,E,5,07,1.0,193.827,M,35.049,M,0.9,*4E
$GPGSA,A,3,08,10,11,16,18,21,27,,,,,,1.9,1.2,1.4,1*20
$GPGSV,2,1,07,08,63,277,49,10,64,120,49,11,22,273,43,16,18,197,44,1*6F
$GPGSV,2,2,07,18,42,066,48,21,16,085,44,27,68,170,49,,,,,1*59
$GPRMC,170856.20,A,5746.8249981,N,01246.2624469,E,4.11,16.65,040716,0.0,E,D*04
$GPGGA,170856.20,5746.8249981,N,01246.2624469,E,5,07,1.0,193.831,M,35.049,M,1.0,*4B
$GPRMC,170856.30,A,5746.8251359,N,01246.2624362,E,7.35,16.09,040716,0.0,E,D*00
$GPGGA,170856.30,5746.8251359,N,01246.2624362,E,5,07,1.0,193.830,M,35.049,M,1.1,*40
$GPRMC,170856.40,A,5746.8252783,N,01246.2624279,E,3.97,347.34,040716,0.0,E,D*39
$GPGGA,170856.40,5746.8252783,N,01246.2624279,E,5,07,1.0,193.831,M,35.049,M,1.2,*4E
$GPGSA,A,3,08,10,11,16,18,21,27,,,,,,1.9,1.2,1.4,1*20
$GPGSV,2,1,07,08,63,277,49,10,64,120,49,11,22,273,43,16,18,197,44,1*6F
$GPGSV,2,2,07,18,42,066,48,21,16,085,44,27,68,170,49,,,,,1*59
$GPRMC,170856.60,A,5746.8255541,N,01246.2624420,E,9.75,6.52,040716,0.0,E,D*3A
$GPGGA,170856.60,5746.8255541,N,01246.2624420,E,5,07,1.0,193.821,M,35.049,M,1.4,*4A
$GPRMC,170857.00,A,5746.8261105,N,01246.2625832,E,6.73,346.71,040716,0.0,E,D*3F
$GPGGA,170857.00,5746.8261105,N,01246.2625832,E,5,07,1.0,193.815,M,35.049,M,1.8,*4B
$GPRMC,170857.20,A,5746.8263794,N,01246.2627058,E,9.00,355.95,040716,0.0,E,D*34
$GPGGA,170857.20,5746.8263794,N,01246.2627058,E,5,07,1.0,193.812,M,35.049,M,2.0,*4F
$GPRMC,170857.30,A,5746.8265126,N,01246.2627803,E,10.41,15.09,040716,0.0,E,D*35
$GPGGA,170857.30,5746.8265126,N,01246.2627803,E,5,07,1.0,193.815,M,35.049,M,2.1,*47
$GPGSA,A,3,08,10,11,16,18,21,27,,,,,,1.9,1.2,1.4,1*20
$GPGSV,2,1,07,08,63,277,49,10,64,120,50,11,22,273,46,16,18,197,44,1*62
$GPGSV,2,2,07,18,42,066,49,21,16,085,45,27,68,170,49,,,,,1*59
$GPRMC,170857.60,A,5746.8269046,N,01246.2630506,E,4.81,34.98,040716,0.0,E,D*07
$GPGGA,170857.60,5746.8269046,N,01246.2630506,E,5,07,1.0,193.812,M,35.049,M,2.4,*45
$GPRMC,170857.80,A,5746.8271585,N,01246.2632614,E,6.68,28.26,040716,0.0,E,D*05
$GPGGA,170857.80,5746.8271585,N,01246.2632614,E,5,07,1.0,193.805,M,35.049,M,2.6,*4E
$GPRMC,170858.00,A,5746.8274078,N,01246.2634933,E,10.17,15.41,040716,0.0,E,D*3C
$GPGGA,170858.00,5746.8274078,N,01246.2634933,E,5,07,1.0,193.794,M,35.049,M,2.8,*4E
$GPRMC,170858.10,A,5746.8275296,N,01246.2636154,E,6.21,36.58,040716,0.0,E,D*0E
$GPGGA,170858.10,5746.8275296,N,01246.2636154,E,5,07,1.0,193.789,M,35.049,M,2.9,*4A
$GPRMC,170858.20,A,5746.8276479,N,01246.2637400,E,3.49,37.75,040716,0.0,E,D*09
$GPGGA,170858.20,5746.8276479,N,01246.2637400,E,5,07,1.0,193.789,M,35.049,M,3.0,*40
$GPRMC,170858.30,A,5746.8277703,N,01246.2638708,E,4.23,70.17,040716,0.0,E,D*0F
$GPGGA,170858.30,5746.8277703,N,01246.2638708,E,5,07,1.0,193.787,M,35.049,M,3.1,*45
$GPGSA,A,3,08,10,11,16,18,21,27,,,,,,1.9,1.2,1.4,1*20
$GPGSV,2,1,07,08,63,277,48,10,64,120,50,11,22,273,47,16,18,197,43,1*65
$GPGSV,2,2,07,18,42,066,48,21,16,085,45,27,68,170,49,,,,,1*58
$GPRMC,170858.40,A,5746.8278904,N,01246.2639969,E,6.15,25.52,040716,0.0,E,D*00
$GPGGA,170858.40,5746.8278904,N,01246.2639969,E,5,07,1.0,193.781,M,35.049,M,3.2,*49
$GPRMC,170858.50,A,5746.8280111,N,01246.2641277,E,4.94,91.91,040716,0.0,E,D*0A
$GPGGA,170858.50,5746.8280111,N,01246.2641277,E,5,07,1.0,193.780,M,35.049,M,3.3,*48
$GPGSA,A,3,08,10,11,16,18,21,27,,,,,,1.9,1.2,1.4,1*20
$GPGSV,2,1,07,08,63,277,48,10,64,120,50,11,22,273,47,16,18,197,43,1*65
$GPGSV,2,2,07,18,42,066,48,21,16,085,45,27,68,170,49,,,,,1*58
$GPRMC,170858.60,A,5746.8281265,N,01246.2642669,E,4.80,104.64,040716,0.0,E,D*32
$GPGGA,170858.60,5746.8281265,N,01246.2642669,E,5,07,1.0,193.774,M,35.049,M,3.4,*4E
$GPRMC,170858.70,A,5746.8282481,N,01246.2644055,E,3.96,44.34,040716,0.0,E,D*03
$GPGGA,170858.70,5746.8282481,N,01246.2644055,E,5,07,1.0,193.774,M,35.049,M,3.5,*4E
$GPRMC,170858.80,A,5746.8283655,N,01246.2645508,E,6.66,14.95,040716,0.0,E,D*0E
$GPGGA,170858.80,5746.8283655,N,01246.2645508,E,5,07,1.0,193.772,M,35.049,M,3.6,*42
$GPGSA,A,3,08,10,11,16,18,21,27,,,,,,1.9,1.2,1.4,1*20
$GPGSV,2,1,07,08,63,277,48,10,64,120,50,11,22,273,47,16,18,197,43,1*65
$GPGSV,2,2,07,18,42,066,48,21,16,085,45,27,68,170,49,,,,,1*58
$GPGSA,A,3,08,10,11,16,18,21,27,,,,,,1.9,1.2,1.4,1*20
$GPGSV,2,1,07,08,63,277,48,10,64,120,50,11,22,273,47,16,18,197,43,1*65
$GPGSV,2,2,07,18,42,066,48,21,16,085,45,27,68,170,49,,,,,1*58
$GPGSA,A,3,08,10,11,16,18,21,27,,,,,,1.9,1.2,1.4,1*20
$GPGSV,2,1,07,08,63,277,49,10,64,120,50,11,22,273,46,16,18,197,42,1*64
$GPGSV,2,2,07,18,42,066,49,21,16,085,45,27,68,170,49,,,,,1*59
$GPGSA,A,3,08,10,11,16,18,21,27,,,,,,1.9,1.2,1.4,1*20
$GPGSV,2,1,07,08,63,277,49,10,64,120,50,11,22,273,46,16,18,197,42,1*64
$GPGSV,2,2,07,18,42,066,49,21,16,085,45,27,68,170,49,,,,,1*59
$GPRMC,170859.90,A,5746.8294936,N,01246.2664718,E,7.33,46.56,040716,0.0,E,D*0B
$GPGGA,170859.90,5746.8294936,N,01246.2664718,E,5,07,1.0,193.745,M,35.049,M,1.7,*49
$GPGSA,A,3,08,10,11,16,18,21,27,,,,,,1.9,1.2,1.4,1*20
$GPGSV,2,1,07,08,63,277,49,10,64,120,50,11,22,273,46,16,18,197,42,1*64
$GPGSV,2,2,07,18,42,066,49,21,16,085,45,27,68,170,49,,,,,1*59
$GPGSA,A,3,08,10,11,16,18,21,27,,,,,,1.9,1.2,1.4,1*20
$GPGSV,2,1,07,08,63,277,49,10,64,120,51,11,22,273,45,16,18,197,43,1*67
$GPGSV,2,2,07,18,42,066,48,21,16,085,45,27,68,170,49,,,,,1*58
$GPRMC,170900.50,A,5746.8299209,N,01246.2678085,E,6.88,59.62,040716,0.0,E,D*06
$GPGGA,170900.50,5746.8299209,N,01246.2678085,E,5,07,1.0,193.720,M,35.049,M,1.3,*4B
$GPGSA,A,3,08,10,11,16,18,21,27,,,,,,1.9,1.2,1.4,1*20
$GPGSV,2,1,07,08,63,277,49,10,64,120,51,11,22,273,45,16,18,197,43,1*67
$GPGSV,2,2,07,18,42,066,48,21,16,085,45,27,68,170,49,,,,,1*58
$GPRMC,170900.60,A,5746.8299774,N,01246.2680451,E,5.58,59.62,040716,0.0,E,D*0E
$GPGGA,170900.60,5746.8299774,N,01246.2680451,E,5,07,1.0,193.719,M,35.049,M,1.4,*40
$GPGSA,A,3,08,10,11,16,18,21,27,,,,,,1.9,1.2,1.4,1*20
$GPGSV,2,1,07,08,63,277,49,10,64,120,51,11,22,273,45,16,18,197,42,1*66
$GPGSV,2,2,07,18,42,066,48,21,16,085,43,27,68,170,49,,,,,1*5E
$GPRMC,170902.20,A,5746.8305289,N,01246.2720671,E,7.32,61.20,040716,0.0,E,D*03
$GPGGA,170902.20,5746.8305289,N,01246.2720671,E,5,07,1.0,193.668,M,35.049,M,1.0,*4D
$GPGSA,A,3,08,10,11,16,18,21,27,,,,,,1.9,1.2,1.4,1*20
$GPGSV,2,1,07,08,63,277,49,10,64,120,51,11,22,273,44,16,18,197,43,1*66
$GPGSV,2,2,07,18,42,066,48,21,16,085,42,27,68,170,49,,,,,1*5F
$GPRMC,170902.40,A,5746.8305517,N,01246.2725887,E,6.23,68.74,040716,0.0,E,D*0E
$GPGGA,170902.40,5746.8305517,N,01246.2725887,E,5,07,1.0,193.654,M,35.049,M,1.2,*44
$GPGSA,A,3,08,10,11,16,18,21,27,,,,,,1.9,1.2,1.4,1*20
$GPGSV,2,1,07,08,63,277,49,10,64,120,51,11,22,273,44,16,18,197,43,1*66
$GPGSV,2,2,07,18,42,066,48,21,16,085,42,27,68,170,49,,,,,1*5F
$GPGSA,A,3,08,10,11,16,18,21,27,,,,,,1.9,1.2,1.4,1*20
$GPGSV,2,1,07,08,63,277,49,10,64,120,51,11,22,273,44,16,18,197,43,1*66
$GPGSV,2,2,07,18,42,066,48,21,16,085,42,27,68,170,49,,,,,1*5F
$GPRMC,170902.60,A,5746.8305583,N,01246.2731107,E,7.43,106.34,040716,0.0,E,D*3F
$GPGGA,170902.60,5746.8305583,N,01246.2731107,E,5,07,1.0,193.644,M,35.049,M,1.4,*48
$GPGSA,A,3,08,10,11,16,18,21,27,,,,,,1.9,1.2,1.4,1*20
$GPGSV,2,1,07,08,63,277,49,10,64,120,51,11,22,273,44,16,18,197,43,1*66
$GPGSV,2,2,07,18,42,066,48,21,16,085,42,27,68,170,49,,,,,1*5F
$GPRMC,170902.80,A,5746.8305449,N,01246.2736307,E,5.28,75.56,040716,0.0,E,D*0D
$GPGGA,170902.80,5746.8305449,N,01246.2736307,E,5,07,1.0,193.641,M,35.049,M,1.6,*43
$GPGSA,A,3,08,10,11,16,18,21,27,,,,,,1.9,1.2,1.4,1*20
$GPGSV,2,1,07,08,63,277,49,10,64,120,51,11,22,273,44,16,18,197,43,1*66
$GPGSV,2,2,07,18,42,066,48,21,16,085,42,27,68,170,49,,,,,1*5F
$GPRMC,170902.90,A,5746.8305314,N,01246.2738888,E,4.29,115.95,040716,0.0,E,D*39
$GPGGA,170902.90,5746.8305314,N,01246.2738888,E,5,07,1.0,193.643,M,35.049,M,1.7,*4C
$GPRMC,170903.10,A,5746.8304909,N,01246.2743987,E,6.90,119.33,040716,0.0,E,D*35
$GPGGA,170903.10,5746.8304909,N,01246.2743987,E,5,07,1.0,193.650,M,35.049,M,0.9,*4D
$GPGSA,A,3,08,10,11,16,18,21,27,,,,,,1.9,1.2,1.4,1*20
$GPGSV,2,1,07,08,63,277,49,10,64,120,50,11,22,273,43,16,18,197,43,1*60
$GPGSV,2,2,07,18,42,066,48,21,16,085,42,27,68,170,50,,,,,1*57
$GPGSA,A,3,08,10,11,16,18,21,27,,,,,,1.9,1.2,1.4,1*20
$GPGSV,2,1,07,08,63,277,49,10,64,120,50,11,22,273,43,16,18,197,43,1*60
$GPGSV,2,2,07,18,42,066,48,21,16,085,42,27,68,170,50,,,,,1*57
$GPRMC,170903.70,A,5746.8302459,N,01246.2758946,E,4.68,130.12,040716,0.0,E,D*37
$GPGGA,170903.70,5746.8302459,N,01246.2758946,E,5,07,1.0,193.637,M,35.049,M,1.5,*4E
$GPGSA,A,3,08,10,11,16,18,21,27,,,,,,1.9,1.2,1.4,1*20
$GPGSV,2,1,07,08,63,277,49,10,64,120,50,11,22,273,43,16,18,197,43,1*60
$GPGSV,2,2,07,18,42,066,48,21,16,085,42,27,68,170,50,,,,,1*57
$GPRMC,170903.80,A,5746.8301910,N,01246.2761308,E,8.09,135.42,040716,0.0,E,D*3A
$GPGGA,170903.80,5746.8301910,N,01246.2761308,E,5,07,1.0,193.634,M,35.049,M,1.6,*48
$GPGSA,A,3,08,10,11,16,18,21,27,,,,,,1.9,1.2,1.4,1*20
$GPGSV,2,1,07,08,63,277,49,10,64,120,50,11,22,273,43,16,18,197,43,1*60
$GPGSV,2,2,07,18,42,066,48,21,16,085,42,27,68,170,50,,,,,1*57
$GPRMC,170904.00,A,5746.8300695,N,01246.2765983,E,5.11,128.65,040716,0.0,E,D*36
$GPGGA,170904.00,5746.8300695,N,01246.2765983,E,5,07,1.0,193.627,M,35.049,M,1.8,*45
$GPGSA,A,3,08,10,11,16,18,21,27,,,,,,1.9,1.2,1.4,1*20
$GPGSV,2,1,07,08,63,277,49,10,64,120,50,11,22,273,43,16,18,197,45,1*66
$GPGSV,2,2,07,18,42,066,49,21,16,085,42,27,68,170,50,,,,,1*56
$GPGSA,A,3,08,10,11,16,18,21,27,,,,,,1.9,1.2,1.4,1*20
$GPGSV,2,1,07,08,63,277,49,10,64,120,50,11,22,273,43,16,18,197,45,1*66
$GPGSV,2,2,07,18,42,066,49,21,16,085,42,27,68,170,50,,,,,1*56
$GPGSA,A,3,08,10,11,16,18,21,27,,,,,,1.9,1.2,1.4,1*20
$GPGSV,2,1,07,08,63,277,49,10,64,120,50,11,22,273,43,16,18,197,45,1*66
$GPGSV,2,2,07,18,42,066,49,21,16,085,42,27,68,170,50,,,,,1*56
$GPRMC,170904.30,A,5746.8298608,N,01246.2772755,E,2.63,113.00,040716,0.0,E,D*3B
$GPGGA,170904.30,5746.8298608,N,01246.2772755,E,5,07,1.0,193.623,M,35.049,M,2.1,*4F
$GPGSA,A,3,08,10,11,16,18,21,27,,,,,,1.9,1.2,1.4,1*20
$GPGSV,2,1,07,08,63,277,49,10,64,120,50,11,22,273,43,16,18,197,45,1*66
$GPGSV,2,2,07,18,42,066,49,21,16,085,42,27,68,170,50,,,,,1*56
$GPRMC,170906.40,A,5746.8279188,N,01246.2812743,E,7.59,155.50,040716,0.0,E,D*3B
$GPGGA,170906.40,5746.8279188,N,01246.2812743,E,5,07,1.0,193.611,M,35.049,M,1.2,*45
$GPRMC,170907.20,A,5746.8268972,N,01246.2820718,E,10.01,165.55,040716,0.0,E,D*03
$GPGGA,170907.20,5746.8268972,N,01246.2820718,E,5,07,1.0,193.622,M,35.049,M,1.0,*42
$GPGSA,A,3,08,10,11,16,18,21,27,,,,,,1.9,1.2,1.4,1*20
$GPGSV,2,1,07,08,63,277,49,10,64,120,51,11,22,273,44,16,18,197,45,1*60
$GPGSV,2,2,07,18,42,066,48,21,16,085,43,27,68,169,50,,,,,1*5E
$GPGSA,A,3,08,10,11,16,18,21,27,,,,,,1.9,1.2,1.4,1*20
$GPGSV,2,1,07,08,63,277,49,10,64,120,50,11,22,273,44,16,18,197,45,1*61
$GPGSV,2,2,07,18,42,066,48,21,16,085,45,27,68,169,50,,,,,1*58
$GPRMC,170908.60,A,5746.8249681,N,01246.2825833,E,4.39,81.44,040716,0.0,E,D*0E
$GPGGA,170908.60,5746.8249681,N,01246.2825833,E,5,07,1.0,193.625,M,35.049,M,1.4,*49
$GPGSA,A,3,08,10,11,16,18,21,27,,,,,,1.9,1.2,1.4,1*20
$GPGSV,2,1,07,08,63,277,49,10,64,120,50,11,22,273,44,16,18,197,45,1*61
$GPGSV,2,2,07,18,42,066,48,21,16,085,45,27,68,169,50,,,,,1*58
$GPGSA,A,3,08,10,11,16,18,21,27,,,,,,1.9,1.2,1.4,1*20
$GPGSV,2,1,07,08,63,277,49,10,64,120,50,11,22,273,44,16,18,197,45,1*61
$GPGSV,2,2,07,18,42,066,48,21,16,085,45,27,68,169,50,,,,,1*58
$GPGSA,A,3,08,10,11,16,18,21,27,,,,,,1.9,1.2,1.4,1*20
$GPGSV,2,1,07,08,63,277,49,10,64,120,50,11,22,273,44,16,18,197,45,1*61
$GPGSV,2,2,07,18,42,066,48,21,16,085,45,27,68,169,50,,,,,1*58
$GPRMC,170909.00,A,5746.8244175,N,01246.2825544,E,4.24,153.77,040716,0.0,E,D*37
$GPGGA,170909.00,5746.8244175,N,01246.2825544,E,5,07,1.0,193.626,M,35.049,M,1.8,*4D
$GPGSA,A,3,08,10,11,16,18,21,27,,,,,,1.9,1.2,1.4,1*20
$GPGSV,2,1,07,08,63,277,49,10,64,120,50,11,22,273,45,16,18,197,42,1*67
$GPGSV,2,2,07,18,42,066,49,21,16,085,46,27,68,169,50,,,,,1*5A
$GPRMC,170909.10,A,5746.8242771,N,01246.2825276,E,4.02,162.17,040716,0.0,E,D*34
$GPGGA,170909.10,5746.8242771,N,01246.2825276,E,5,07,1.0,193.627,M,35.049,M,1.9,*4E
$GPGSA,A,3,08,10,11,16,18,21,27,,,,,,1.9,1.2,1.4,1*20
$GPGSV,2,1,07,08,63,277,49,10,64,120,50,11,22,273,45,16,18,197,42,1*67
$GPGSV,2,2,07,18,42,066,49,21,16,085,46,27,68,169,50,,,,,1*5A
$GPRMC,170909.20,A,5746.8241422,N,01246.2824902,E,8.33,165.39,040716,0.0,E,D*3D
$GPGGA,170909.20,5746.8241422,N,01246.2824902,E,5,07,1.0,193.630,M,35.049,M,2.0,*4E
$GPGSA,A,3,08,10,11,16,18,21,27,,,,,,1.9,1.2,1.4,1*20
$GPGSV,2,1,07,08,63,277,49,10,64,120,50,11,22,273,45,16,18,197,42,1*67
$GPGSV,2,2,07,18,42,066,49,21,16,085,46,27,68,169,50,,,,,1*5A
$GPRMC,170909.40,A,5746.8238709,N,01246.2823925,E,8.83,181.26,040716,0.0,E,D*32
$GPGGA,170909.40,5746.8238709,N,01246.2823925,E,5,07,1.0,193.633,M,35.049,M,2.2,*4F
$GPRMC,170909.60,A,5746.8236018,N,01246.2822591,E,6.95,193.98,040716,0.0,E,D*34
$GPGGA,170909.60,5746.8236018,N,01246.2822591,E,5,07,1.0,193.635,M,35.049,M,2.4,*46
$GPRMC,170909.70,A,5746.8234673,N,01246.2821783,E,5.56,263.36,040716,0.0,E,D*3A
$GPGGA,170909.70,5746.8234673,N,01246.2821783,E,5,07,1.0,193.633,M,35.049,M,2.5,*4B
$GPGSA,A,3,08,10,11,16,18,21,27,,,,,,1.9,1.2,1.4,1*20
$GPGSV,2,1,07,08,63,277,49,10,64,120,50,11,22,273,45,16,18,197,42,1*67
$GPGSV,2,2,07,18,42,066,49,21,16,085,46,27,68,169,50,,,,,1*5A
$GPRMC,170909.80,A,5746.8233373,N,01246.2820885,E,8.68,200.07,040716,0.0,E,D*38
$GPGGA,170909.80,5746.8233373,N,01246.2820885,E,5,07,1.0,193.632,M,35.049,M,2.6,*4C
$GPRMC,170910.00,A,5746.8230848,N,01246.2818806,E,3.33,260.88,040716,0.0,E,D*3C
$GPGGA,170910.00,5746.8230848,N,01246.2818806,E,5,07,1.0,193.636,M,35.049,M,0.8,*44
$GPRMC,170910.10,A,5746.8229577,N,01246.2817668,E,5.25,209.84,040716,0.0,E,D*3F
$GPGGA,170910.10,5746.8229577,N,01246.2817668,E,5,07,1.0,193.646,M,35.049,M,0.9,*43
$GPGSA,A,3,08,10,11,16,18,21,27,,,,,,1.9,1.2,1.4,1*20
$GPGSV,2,1,07,08,63,277,49,10,64,120,50,11,22,273,45,16,18,197,41,1*64
$GPGSV,2,2,07,18,42,066,49,21,16,085,46,27,68,169,50,,,,,1*5A
$GPGSA,A,3,08,10,11,16,18,21,27,,,,,,1.9,1.2,1.4,1*20
$GPGSV,2,1,07,08,63,277,49,10,64,120,50,11,22,273,45,16,18,197,41,1*64
$GPGSV,2,2,07,18,42,066,49,21,16,085,46,27,68,169,50,,,,,1*5A
$GPGSA,A,3,08,10,11,16,18,21,27,,,,,,1.9,1.2,1.4,1*20
$GPGSV,2,1,07,08,63,277,49,10,64,120,50,11,22,273,45,16,18,197,41,1*64
$GPGSV,2,2,07,18,42,066,49,21,16,085,46,27,68,169,50,,,,,1*5A
$GPRMC,170910.80,A,5746.8221356,N,01246.2807902,E,2.43,262.58,040716,0.0,E,D*32
$GPGGA,170910.80,5746.8221356,N,01246.2807902,E,5,07,1.0,193.652,M,35.049,M,1.6,*4E
$GPRMC,170911.00,A,5746.8219193,N,01246.2804732,E,5.85,222.73,040716,0.0,E,D*35
$GPGGA,170911.00,5746.8219193,N,01246.2804732,E,5,07,1.0,193.660,M,35.049,M,0.8,*47
$GPRMC,170911.10,A,5746.8218134,N,01246.2803085,E,6.18,234.41,040716,0.0,E,D*35
$GPGGA,170911.10,5746.8218134,N,01246.2803085,E,5,07,1.0,193.668,M,35.049,M,0.9,*4F
$GPGSA,A,3,08,10,11,16,18,21,27,,,,,,1.9,1.2,1.4,1*20
$GPGSV,2,1,07,08,63,277,49,10,64,120,50,11,22,273,45,16,18,197,43,1*66
$GPGSV,2,2,07,18,42,066,49,21,16,085,45,27,68,169,50,,,,,1*59
$GPRMC,170911.20,A,5746.8217044,N,01246.2801461,E,9.18,220.73,040716,0.0,E,D*38
$GPGGA,170911.20,5746.8217044,N,01246.2801461,E,5,07,1.0,193.672,M,35.049,M,1.0,*4A
$GPRMC,170911.30,A,5746.8215973,N,01246.2799779,E,9.35,192.06,040716,0.0,E,D*35
$GPGGA,170911.30,5746.8215973,N,01246.2799779,E,5,07,1.0,193.676,M,35.049,M,1.1,*45
$GPGSA,A,3,08,10,11,16,18,21,27,,,,,,1.9,1.2,1.4,1*20
$GPGSV,2,1,07,08,63,277,49,10,64,120,50,11,22,273,45,16,18,197,43,1*66
$GPGSV,2,2,07,18,42,066,49,21,16,085,45,27,68,169,50,,,,,1*59
$GPRMC,170911.40,A,5746.8214928,N,01246.2798076,E,9.60,217.25,040716,0.0,E,D*3B
$GPGGA,170911.40,5746.8214928,N,01246.2798076,E,5,07,1.0,193.677,M,35.049,M,1.2,*46
$GPRMC,170911.50,A,5746.8213884,N,01246.2796336,E,7.78,183.91,040716,0.0,E,D*35
$GPGGA,170911.50,5746.8213884,N,01246.2796336,E,5,07,1.0,193.678,M,35.049,M,1.3,*40
$GPGSA,A,3,08,10,11,16,18,21,27,,,,,,1.9,1.2,1.4,1*20
$GPGSV,2,1,07,08,63,277,49,10,64,120,50,11,22,273,45,16,18,197,43,1*66
$GPGSV,2,2,07,18,42,066,49,21,16,085,45,27,68,169,50,,,,,1*59
$GPRMC,170911.60,A,5746.8212860,N,01246.2794550,E,8.16,195.51,040716,0.0,E,D*35
$GPGGA,170911.60,5746.8212860,N,01246.2794550,E,5,07,1.0,193.681,M,35.049,M,1.4,*4D
$GPRMC,170911.70,A,5746.8211851,N,01246.2792765,E,4.07,252.33,040716,0.0,E,D*37
$GPGGA,170911.70,5746.8211851,N,01246.2792765,E,5,07,1.0,193.679,M,35.049,M,1.5,*49
$GPGSA,A,3,08,10,11,16,18,21,27,,,,,,1.9,1.2,1.4,1*20
$GPGSV,2,1,07,08,63,277,49,10,64,120,50,11,22,273,45,16,18,197,43,1*66
$GPGSV,2,2,07,18,42,066,49,21,16,085,45,27,68,169,50,,,,,1*59
$GPRMC,170911.80,A,5746.8210855,N,01246.2790949,E,6.23,179.25,040716,0.0,E,D*36
$GPGGA,170911.80,5746.8210855,N,01246.2790949,E,5,07,1.0,193.679,M,35.049,M,1.6,*42
$GPRMC,170911.90,A,5746.8209848,N,01246.2789059,E,6.43,192.29,040716,0.0,E,D*3C
$GPGGA,170911.90,5746.8209848,N,01246.2789059,E,5,07,1.0,193.683,M,35.049,M,1.7,*43
$GPGSA,A,3,08,10,11,16,18,21,27,,,,,,1.9,1.2,1.4,1*20
$GPGSV,2,1,07,08,63,277,49,10,64,120,50,11,22,273,45,16,18,197,43,1*66
$GPGSV,2,2,07,18,42,066,49,21,16,085,45,27,68,169,50,,,,,1*59
$GPRMC,170912.00,A,5746.8208953,N,01246.2787148,E,4.46,299.13,040716,0.0,E,D*35
$GPGGA,170912.00,5746.8208953,N,01246.2787148,E,5,07,1.0,193.680,M,35.049,M,0.8,*41
$GPRMC,170912.10,A,5746.8208055,N,01246.2785185,E,5.81,273.62,040716,0.0,E,D*30
$GPGGA,170912.10,5746.8208055,N,01246.2785185,E,5,07,1.0,193.676,M,35.049,M,0.9,*44
$GPGSA,A,3,08,10,11,16,18,21,27,,,,,,1.9,1.2,1.4,1*20
$GPGSV,2,1,07,08,63,277,49,10,64,120,49,11,22,273,46,16,18,197,42,1*6C
$GPGSV,2,2,07,18,42,066,49,21,16,085,44,27,68,169,49,,,,,1*50
$GPRMC,170912.20,A,5746.8207228,N,01246.2783110,E,2.76,295.40,040716,0.0,E,D*39
$GPGGA,170912.20,5746.8207228,N,01246.2783110,E,5,07,1.0,193.681,M,35.049,M,1.0,*4A
$GPRMC,170912.30,A,5746.8206387,N,01246.2781019,E,5.64,325.26,040716,0.0,E,D*39
$GPGGA,170912.30,5746.8206387,N,01246.2781019,E,5,07,1.0,193.688,M,35.049,M,1.1,*4C
$GPGSA,A,3,08,10,11,16,18,21,27,,,,,,1.9,1.2,1.4,1*20
$GPGSV,2,1,07,08,63,277,49,10,64,120,49,11,22,273,46,16,18,197,42,1*6C
$GPGSV,2,2,07,18,42,066,49,21,16,085,44,27,68,169,49,,,,,1*50
$GPRMC,170912.40,A,5746.8205612,N,01246.2778883,E,9.47,224.11,040716,0.0,E,D*30
$GPGGA,170912.40,5746.8205612,N,01246.2778883,E,5,07,1.0,193.698,M,35.049,M,1.2,*4E
$GPRMC,170912.50,A,5746.8204904,N,01246.2776662,E,6.20,233.02,040716,0.0,E,D*3D
$GPGGA,170912.50,5746.8204904,N,01246.2776662,E,5,07,1.0,193.694,M,35.049,M,1.3,*44
$GPGSA,A,3,08,10,11,16,18,21,27,,,,,,1.9,1.2,1.4,1*20
$GPGSV,2,1,07,08,63,277,49,10,64,120,49,11,22,273,46,16,18,197,42,1*6C
$GPGSV,2,2,07,18,42,066,49,21,16,085,44,27,68,169,49,,,,,1*50
$GPRMC,170912.60,A,5746.8204182,N,01246.2774437,E,1.90,233.02,040716,0.0,E,D*34
$GPGGA,170912.60,5746.8204182,N,01246.2774437,E,5,07,1.0,193.698,M,35.049,M,1.4,*4A
$GPGSA,A,3,08,10,11,16,18,21,27,,,,,,1.9,1.2,1.4,1*20
$GPGSV,2,1,07,08,63,277,49,10,64,120,49,11,22,273,46,16,18,197,42,1*6C
$GPGSV,2,2,07,18,42,066,49,21,16,085,44,27,68,169,49,,,,,1*50
$GPGSA,A,3,08,10,11,16,18,21,27,,,,,,1.9,1.2,1.4,1*20
$GPGSV,2,1,07,08,63,277,49,10,64,120,49,11,22,273,46,16,18,197,42,1*6C
$GPGSV,2,2,07,18,42,066,49,21,16,085,44,27,68,169,49,,,,,1*50
$GPGSA,A,3,08,10,11,16,18,21,27,,,,,,1.9,1.2,1.4,1*20
$GPGSV,2,1,07,08,63,277,49,10,64,120,49,11,22,273,46,16,18,197,42,1*6C
$GPGSV,2,2,07,18,42,066,49,21,16,085,44,27,68,169,49,,,,,1*50
$GPRMC,170912.90,A,5746.8202344,N,01246.2767427,E,6.13,257.79,040716,0.0,E,D*34
$GPGGA,170912.90,5746.8202344,N,01246.2767427,E,5,07,1.0,193.709,M,35.049,M,1.7,*42
$GPRMC,170913.00,A,5746.8201809,N,01246.2765015,E,3.03,233.05,040716,0.0,E,D*37
$GPGGA,170913.00,5746.8201809,N,01246.2765015,E,5,07,1.0,193.708,M,35.049,M,1.8,*42
$GPGSA,A,3,08,10,11,16,18,21,27,,,,,,1.9,1.2,1.4,1*20
$GPGSV,2,1,07,08,63,277,50,10,64,120,49,11,22,273,44,16,18,197,38,1*6B
$GPGSV,2,2,07,18,42,066,49,21,16,085,44,27,68,169,50,,,,,1*58
$GPRMC,170913.10,A,5746.8201306,N,01246.2762612,E,3.70,245.90,040716,0.0,E,D*3D
$GPGGA,170913.10,5746.8201306,N,01246.2762612,E,5,07,1.0,193.710,M,35.049,M,1.9,*49
$GPGSA,A,3,08,10,11,16,18,21,27,,,,,,1.9,1.2,1.4,1*20
$GPGSV,2,1,07,08,63,277,50,10,64,120,49,11,22,273,44,16,18,197,38,1*6B
$GPGSV,2,2,07,18,42,066,49,21,16,085,44,27,68,169,50,,,,,1*58
$GPRMC,170913.30,A,5746.8200466,N,01246.2757626,E,6.12,265.68,040716,0.0,E,D*3A
$GPGGA,170913.30,5746.8200466,N,01246.2757626,E,5,07,1.0,193.724,M,35.049,M,2.1,*46
$GPGSA,A,3,08,10,11,16,18,21,27,,,,,,1.9,1.2,1.4,1*20
$GPGSV,2,1,07,08,63,277,50,10,64,120,49,11,22,273,44,16,18,197,38,1*6B
$GPGSV,2,2,07,18,42,066,49,21,16,085,44,27,68,169,50,,,,,1*58
$GPRMC,170913.40,A,5746.8200103,N,01246.2755128,E,5.48,266.46,040716,0.0,E,D*33
$GPGGA,170913.40,5746.8200103,N,01246.2755128,E,5,07,1.0,193.719,M,35.049,M,2.2,*41
$GPGSA,A,3,08,10,11,16,18,21,27,,,,,,1.9,1.2,1.4,1*20
$GPGSV,2,1,07,08,63,277,50,10,64,120,49,11,22,273,44,16,18,197,38,1*6B
$GPGSV,2,2,07,18,42,066,49,21,16,085,44,27,68,169,50,,,,,1*58
$GPRMC,170913.50,A,5746.8199783,N,01246.2752592,E,5.42,258.37,040716,0.0,E,D*3C
$GPGGA,170913.50,5746.8199783,N,01246.2752592,E,5,07,1.0,193.726,M,35.049,M,2.3,*42
$GPGSA,A,3,08,10,11,16,18,21,27,,,,,,1.9,1.2,1.4,1*20
$GPGSV,2,1,07,08,63,277,50,10,64,120,49,11,22,273,44,16,18,197,38,1*6B
$GPGSV,2,2,07,18,42,066,49,21,16,085,44,27,68,169,50,,,,,1*58
$GPRMC,170913.60,A,5746.8199504,N,01246.2750050,E,4.85,265.16,040716,0.0,E,D*3C
$GPGGA,170913.60,5746.8199504,N,01246.2750050,E,5,07,1.0,193.731,M,35.049,M,2.4,*44
$GPRMC,170913.70,A,5746.8199293,N,01246.2747486,E,10.90,289.02,040716,0.0,E,D*0B
$GPGGA,170913.70,5746.8199293,N,01246.2747486,E,5,07,1.0,193.733,M,35.049,M,2.5,*46
$GPGSA,A,3,08,10,11,16,18,21,27,,,,,,1.9,1.2,1.4,1*20
$GPGSV,2,1,07,08,63,277,50,10,64,120,49,11,22,273,44,16,18,197,38,1*6B
$GPGSV,2,2,07,18,42,066,49,21,16,085,44,27,68,169,50,,,,,1*58
$GPRMC,170913.80,A,5746.8199055,N,01246.2744938,E,4.24,312.27,040716,0.0,E,D*39
$GPGGA,170913.80,5746.8199055,N,01246.2744938,E,5,07,1.0,193.738,M,35.049,M,2.6,*42
$GPRMC,170913.90,A,5746.8198834,N,01246.2742339,E,8.36,218.84,040716,0.0,E,D*36
$GPGGA,170913.90,5746.8198834,N,01246.2742339,E,5,07,1.0,193.736,M,35.049,M,2.7,*4F
$GPRMC,170914.00,A,5746.8198695,N,01246.2739749,E,4.26,254.26,040716,0.0,E,D*3F
$GPGGA,170914.00,5746.8198695,N,01246.2739749,E,5,07,1.0,193.734,M,35.049,M,2.8,*46
$GPRMC,170914.10,A,5746.8198613,N,01246.2737137,E,7.73,249.12,040716,0.0,E,D*39
$GPGGA,170914.10,5746.8198613,N,01246.2737137,E,5,07,1.0,193.740,M,35.049,M,2.9,*4A
$GPGSA,A,3,08,10,11,16,18,21,27,,,,,,1.9,1.2,1.4,1*20
$GPGSV,2,1,07,08,63,277,50,10,64,120,50,11,22,273,42,16,18,197,41,1*6B
$GPGSV,2,2,07,18,42,066,49,21,16,085,43,27,68,169,50,,,,,1*5F
$GPRMC,170914.20,A,5746.8198476,N,01246.2734534,E,7.75,277.25,040716,0.0,E,D*30
$GPGGA,170914.20,5746.8198476,N,01246.2734534,E,5,07,1.0,193.745,M,35.049,M,3.0,*41
$GPRMC,170914.30,A,5746.8198386,N,01246.2731962,E,5.32,297.80,040716,0.0,E,D*33
$GPGGA,170914.30,5746.8198386,N,01246.2731962,E,5,07,1.0,193.751,M,35.049,M,3.1,*46
$GPGSA,A,3,08,10,11,16,18,21,27,,,,,,1.9,1.2,1.4,1*20
$GPGSV,2,1,07,08,63,277,50,10,64,120,50,11,22,273,42,16,18,197,41,1*6B
$GPGSV,2,2,07,18,42,066,49,21,16,085,43,27,68,169,50,,,,,1*5F
$GPGSA,A,3,08,10,11,16,18,21,27,,,,,,1.9,1.2,1.4,1*20
$GPGSV,2,1,07,08,63,277,50,10,64,120,50,11,22,273,42,16,18,197,41,1*6B
$GPGSV,2,2,07,18,42,066,49,21,16,085,43,27,68,169,50,,,,,1*5F
$GPGSA,A,3,08,10,11,16,18,21,27,,,,,,1.9,1.2,1.4,1*20
$GPGSV,2,1,07,08,63,277,50,10,64,120,50,11,22,273,42,16,18,197,41,1*6B
$GPGSV,2,2,07,18,42,066,49,21,16,085,43,27,68,169,50,,,,,1*5F
$GPRMC,170914.80,A,5746.8198218,N,01246.2718976,E,7.53,266.22,040716,0.0,E,D*33
$GPGGA,170914.80,5746.8198218,N,01246.2718976,E,5,07,1.0,193.761,M,35.049,M,3.6,*41
$GPRMC,170915.00,A,5746.8198303,N,01246.2713782,E,5.41,261.72,040716,0.0,E,D*3C
$GPGGA,170915.00,5746.8198303,N,01246.2713782,E,5,07,1.0,193.767,M,35.049,M,3.8,*45
$GPGSA,A,3,08,10,11,16,18,21,27,,,,,,1.9,1.2,1.4,1*20
$GPGSV,2,1,07,08,63,277,50,10,64,120,50,11,22,273,42,16,18,197,43,1*69
$GPGSV,2,2,07,18,42,066,48,21,16,085,42,27,68,169,49,,,,,1*57
$GPRMC,170915.10,A,5746.8198396,N,01246.2711186,E,5.32,268.11,040716,0.0,E,D*39
$GPGGA,170915.10,5746.8198396,N,01246.2711186,E,5,07,1.0,193.769,M,35.049,M,3.9,*47
$GPRMC,170915.20,A,5746.8198513,N,01246.2708559,E,5.90,239.43,040716,0.0,E,D*34
$GPGGA,170915.20,5746.8198513,N,01246.2708559,E,5,07,1.0,193.771,M,35.049,M,4.0,*46
$GPRMC,170915.30,A,5746.8198653,N,01246.2706003,E,4.69,289.22,040716,0.0,E,D*3D
$GPGGA,170915.30,5746.8198653,N,01246.2706003,E,5,07,1.0,193.769,M,35.049,M,4.1,*4C
$GPGSA,A,3,08,10,11,16,18,21,27,,,,,,1.9,1.2,1.4,1*20
$GPGSV,2,1,07,08,63,277,50,10,64,120,50,11,22,273,42,16,18,197,43,1*69
$GPGSV,2,2,07,18,42,066,48,21,16,085,42,27,68,169,49,,,,,1*57
$GPRMC,170915.50,A,5746.8199121,N,01246.2700861,E,7.17,290.57,040716,0.0,E,D*32
$GPGGA,170915.50,5746.8199121,N,01246.2700861,E,5,07,1.0,193.770,M,35.049,M,4.3,*49
$GPGSA,A,3,08,10,11,16,18,21,27,,,,,,1.9,1.2,1.4,1*20
$GPGSV,2,1,07,08,63,277,50,10,64,120,50,11,22,273,42,16,18,197,43,1*69
$GPGSV,2,2,07,18,42,066,48,21,16,085,42,27,68,169,49,,,,,1*57
$GPRMC,170915.60,A,5746.8199419,N,01246.2698312,E,8.82,293.69,040716,0.0,E,D*3D
$GPGGA,170915.60,5746.8199419,N,01246.2698312,E,5,07,1.0,193.769,M,35.049,M,4.4,*44
$GPGSA,A,3,08,10,11,16,18,21,27,,,,,,1.9,1.2,1.4,1*20
$GPGSV,2,1,07,08,63,277,50,10,64,120,50,11,22,273,42,16,18,197,43,1*69
$GPGSV,2,2,07,18,42,066,48,21,16,085,42,27,68,169,49,,,,,1*57
$GPRMC,170915.80,A,5746.8200186,N,01246.2693329,E,5.22,294.25,040716,0.0,E,D*38
$GPGGA,170915.80,5746.8200186,N,01246.2693329,E,5,07,1.0,193.771,M,35.049,M,4.6,*42
$GPRMC,170915.90,A,5746.8200676,N,01246.2690830,E,5.20,266.40,040716,0.0,E,D*3D
$GPGGA,170915.90,5746.8200676,N,01246.2690830,E,5,07,1.0,193.773,M,35.049,M,4.7,*48
$GPGSA,A,3,08,10,11,16,18,21,27,,,,,,1.9,1.2,1.4,1*20
$GPGSV,2,1,07,08,63,277,50,10,64,120,50,11,22,273,42,16,18,197,43,1*69
$GPGSV,2,2,07,18,42,066,48,21,16,085,42,27,68,169,49,,,,,1*57
$GPRMC,170916.20,A,5746.8202239,N,01246.2683660,E,4.39,263.90,040716,0.0,E,D*30
$GPGGA,170916.20,5746.8202239,N,01246.2683660,E,5,07,1.0,193.782,M,35.049,M,1.0,*48
$GPGSA,A,3,08,10,11,16,18,21,27,,,,,,1.9,1.2,1.4,1*20
$GPGSV,2,1,07,08,63,277,50,10,64,120,50,11,22,273,42,16,18,197,45,1*6F
$GPGSV,2,2,07,18,42,066,48,21,16,085,42,27,68,169,49,,,,,1*57
$GPRMC,170916.30,A,5746.8202853,N,01246.2681349,E,4.02,329.97,040716,0.0,E,D*3B
$GPGGA,170916.30,5746.8202853,N,01246.2681349,E,5,07,1.0,193.786,M,35.049,M,1.1,*46
$GPRMC,170916.40,A,5746.8203528,N,01246.2679076,E,7.32,313.67,040716,0.0,E,D*32
$GPGGA,170916.40,5746.8203528,N,01246.2679076,E,5,07,1.0,193.789,M,35.049,M,1.2,*45
$GPGSA,A,3,08,10,11,16,18,21,27,,,,,,1.9,1.2,1.4,1*20
$GPGSV,2,1,07,08,63,277,50,10,64,120,50,11,22,273,42,16,18,197,45,1*6F
$GPGSV,2,2,07,18,42,066,48,21,16,085,42,27,68,169,49,,,,,1*57
$GPRMC,170916.50,A,5746.8204265,N,01246.2676825,E,4.76,314.70,040716,0.0,E,D*39
$GPGGA,170916.50,5746.8204265,N,01246.2676825,E,5,07,1.0,193.791,M,35.049,M,1.3,*44
$GPRMC,170916.60,A,5746.8205004,N,01246.2674638,E,2.96,302.35,040716,0.0,E,D*30
$GPGGA,170916.60,5746.8205004,N,01246.2674638,E,5,07,1.0,193.790,M,35.049,M,1.4,*45
$GPGSA,A,3,08,10,11,16,18,21,27,,,,,,1.9,1.2,1.4,1*20
$GPGSV,2,1,07,08,63,277,50,10,64,120,50,11,22,273,42,16,18,197,45,1*6F
$GPGSV,2,2,07,18,42,066,48,21,16,085,42,27,68,169,49,,,,,1*57
$GPRMC,170916.70,A,5746.8205762,N,01246.2672468,E,6.05,317.75,040716,0.0,E,D*39
$GPGGA,170916.70,5746.8205762,N,01246.2672468,E,5,07,1.0,193.785,M,35.049,M,1.5,*47
$GPRMC,170916.80,A,5746.8206601,N,01246.2670359,E,3.62,299.55,040716,0.0,E,D*37
$GPGGA,170916.80,5746.8206601,N,01246.2670359,E,5,07,1.0,193.782,M,35.049,M,1.6,*4C
$GPGSA,A,3,08,10,11,16,18,21,27,,,,,,1.9,1.2,1.4,1*20
$GPGSV,2,1,07,08,63,277,50,10,64,120,50,11,22,273,42,16,18,197,45,1*6F
$GPGSV,2,2,07,18,42,066,48,21,16,085,42,27,68,169,49,,,,,1*57
$GPRMC,170917.00,A,5746.8208327,N,01246.2666309,E,5.79,315.11,040716,0.0,E,D*3A
$GPGGA,170917.00,5746.8208327,N,01246.2666309,E,5,07,1.0,193.777,M,35.049,M,1.8,*4C
$GPGSA,A,3,08,10,11,16,18,21,27,,,,,,1.9,1.2,1.4,1*20
$GPGSV,2,1,07,08,63,277,50,10,64,120,50,11,22,273,43,16,18,197,46,1*6D
$GPGSV,2,2,07,18,42,066,48,21,16,085,42,27,68,169,49,,,,,1*57
$GPRMC,170917.20,A,5746.8210154,N,01246.2662405,E,7.01,328.01,040716,0.0,E,D*3A
$GPGGA,170917.20,5746.8210154,N,01246.2662405,E,5,07,1.0,193.781,M,35.049,M,2.0,*4C
$GPGSA,A,3,08,10,11,16,18,21,27,,,,,,1.9,1.2,1.4,1*20
$GPGSV,2,1,07,08,63,277,50,10,64,120,50,11,22,273,43,16,18,197,46,1*6D
$GPGSV,2,2,07,18,42,066,48,21,16,085,42,27,68,169,49,,,,,1*57
$GPRMC,170917.30,A,5746.8211124,N,01246.2660468,E,2.26,277.16,040716,0.0,E,D*39
$GPGGA,170917.30,5746.8211124,N,01246.2660468,E,5,07,1.0,193.789,M,35.049,M,2.1,*4B
$GPGSA,A,3,08,10,11,16,18,21,27,,,,,,1.9,1.2,1.4,1*20
$GPGSV,2,1,07,08,63,277,50,10,64,120,50,11,22,273,43,16,18,197,46,1*6D
$GPGSV,2,2,07,18,42,066,48,21,16,085,42,27,68,169,49,,,,,1*57
$GPRMC,170917.40,A,5746.8212051,N,01246.2658592,E,4.70,334.27,040716,0.0,E,D*30
$GPGGA,170917.40,5746.8212051,N,01246.2658592,E,5,07,1.0,193.792,M,35.049,M,2.2,*4A
$GPRMC,170917.50,A,5746.8213014,N,01246.2656743,E,5.69,298.50,040716,0.0,E,D*3F
$GPGGA,170917.50,5746.8213014,N,01246.2656743,E,5,07,1.0,193.787,M,35.049,M,2.3,*4E
$GPGSA,A,3,08,10,11,16,18,21,27,,,,,,1.9,1.2,1.4,1*20
$GPGSV,2,1,07,08,63,277,50,10,64,120,50,11,22,273,43,16,18,197,46,1*6D
$GPGSV,2,2,07,18,42,066,48,21,16,085,42,27,68,169,49,,,,,1*57
$GPRMC,170917.60,A,5746.8214001,N,01246.2654913,E,5.40,298.03,040716,0.0,E,D*3B
$GPGGA,170917.60,5746.8214001,N,01246.2654913,E,5,07,1.0,193.791,M,35.049,M,2.4,*47
$GPGSA,A,3,08,10,11,16,18,21,27,,,,,,1.9,1.2,1.4,1*20
$GPGSV,2,1,07,08,63,277,50,10,64,120,50,11,22,273,43,16,18,197,46,1*6D
$GPGSV,2,2,07,18,42,066,48,21,16,085,42,27,68,169,49,,,,,1*57
$GPRMC,170917.70,A,5746.8214985,N,01246.2653079,E,6.14,253.51,040716,0.0,E,D*3F
$GPGGA,170917.70,5746.8214985,N,01246.2653079,E,5,07,1.0,193.788,M,35.049,M,2.5,*48
$GPGSA,A,3,08,10,11,16,18,21,27,,,,,,1.9,1.2,1.4,1*20
$GPGSV,2,1,07,08,63,277,50,10,64,120,50,11,22,273,43,16,18,197,46,1*6D
$GPGSV,2,2,07,18,42,066,48,21,16,085,42,27,68,169,49,,,,,1*57
$GPRMC,170917.80,A,5746.8215947,N,01246.2651279,E,7.39,303.88,040716,0.0,E,D*31
$GPGGA,170917.80,5746.8215947,N,01246.2651279,E,5,07,1.0,193.790,M,35.049,M,2.6,*42
$GPGSA,A,3,08,10,11,16,18,21,27,,,,,,1.9,1.2,1.4,1*20
$GPGSV,2,1,07,08,63,277,50,10,64,120,50,11,22,273,43,16,18,197,46,1*6D
$GPGSV,2,2,07,18,42,066,48,21,16,085,42,27,68,169,49,,,,,1*57
$GPGSA,A,3,08,10,11,16,18,21,27,,,,,,1.9,1.2,1.4,1*20
$GPGSV,2,1,07,08,63,277,50,10,64,120,50,11,22,273,43,16,18,197,46,1*6D
$GPGSV,2,2,07,18,42,066,48,21,16,085,42,27,68,169,49,,,,,1*57
$GPRMC,170918.00,A,5746.8217976,N,01246.2647693,E,7.69,297.77,040716,0.0,E,D*38
$GPGGA,170918.00,5746.8217976,N,01246.2647693,E,5,07,1.0,193.791,M,35.049,M,0.8,*4F
$GPGSA,A,3,08,10,11,16,18,21,27,,,,,,1.9,1.2,1.4,1*20
$GPGSV,2,1,07,08,63,277,49,10,64,120,50,11,22,273,43,16,18,197,46,1*65
$GPGSV,2,2,07,18,42,066,48,21,16,085,42,27,68,169,49,,,,,1*57
$GPRMC,170918.10,A,5746.8219053,N,01246.2646011,E,8.48,329.34,040716,0.0,E,D*3B
$GPGGA,170918.10,5746.8219053,N,01246.2646011,E,5,07,1.0,193.783,M,35.049,M,0.9,*41
$GPGSA,A,3,08,10,11,16,18,21,27,,,,,,1.9,1.2,1.4,1*20
$GPGSV,2,1,07,08,64,277,49,10,64,120,50,11,22,273,43,16,18,197,46,1*62
$GPGSV,2,2,07,18,42,066,48,21,16,085,42,27,68,169,49,,,,,1*57
$GPRMC,170918.20,A,5746.8220082,N,01246.2644345,E,8.87,321.48,040716,0.0,E,D*3E
$GPGGA,170918.20,5746.8220082,N,01246.2644345,E,5,07,1.0,193.789,M,35.049,M,1.0,*46
$GPGSA,A,3,08,10,11,16,18,21,27,,,,,,1.9,1.2,1.4,1*20
$GPGSV,2,1,07,08,64,277,49,10,64,120,50,11,22,273,43,16,18,197,46,1*62
$GPGSV,2,2,07,18,42,066,48,21,16,085,42,27,68,169,49,,,,,1*57
$GPGSA,A,3,08,10,11,16,18,21,27,,,,,,1.9,1.2,1.4,1*20
$GPGSV,2,1,07,08,64,277,49,10,64,120,50,11,22,273,43,16,18,197,46,1*62
$GPGSV,2,2,07,18,42,066,48,21,16,085,42,27,68,169,49,,,,,1*57
$GPRMC,170918.40,A,5746.8222257,N,01246.2641028,E,6.56,357.65,040716,0.0,E,D*31
$GPGGA,170918.40,5746.8222257,N,01246.2641028,E,5,07,1.0,193.793,M,35.049,M,1.2,*4C
$GPGSA,A,3,08,10,11,16,18,21,27,,,,,,1.9,1.2,1.4,1*20
$GPGSV,2,1,07,08,64,277,49,10,64,120,50,11,22,273,43,16,18,197,46,1*62
$GPGSV,2,2,07,18,42,066,48,21,16,085,42,27,68,169,49,,,,,1*57
$GPGSA,A,3,08,10,11,16,18,21,27,,,,,,1.9,1.2,1.4,1*20
$GPGSV,2,1,07,08,64,277,49,10,64,120,50,11,22,273,43,16,18,197,46,1*62
$GPGSV,2,2,07,18,42,066,48,21,16,085,42,27,68,169,49,,,,,1*57
$GPGSA,A,3,08,10,11,16,18,21,27,,,,,,1.9,1.2,1.4,1*20
$GPGSV,2,1,07,08,64,277,49,10,64,120,50,11,22,273,43,16,18,197,46,1*62
$GPGSV,2,2,07,18,42,066,48,21,16,085,42,27,68,169,49,,,,,1*57
$GPRMC,170918.80,A,5746.8226918,N,01246.2635453,E,5.93,342.89,040716,0.0,E,D*3E
$GPGGA,170918.80,5746.8226918,N,01246.2635453,E,5,07,1.0,193.800,M,35.049,M,1.6,*4E
$GPRMC,170918.90,A,5746.8228135,N,01246.2634306,E,4.27,2.88,040716,0.0,E,D*38
$GPGGA,170918.90,5746.8228135,N,01246.2634306,E,5,07,1.0,193.802,M,35.049,M,1.7,*43
$GPGSA,A,3,08,10,11,16,18,21,27,,,,,,1.9,1.2,1.4,1*20
$GPGSV,2,1,07,08,64,277,49,10,64,120,49,11,22,273,41,16,18,197,45,1*6B
$GPGSV,2,2,07,18,42,066,47,21,16,085,42,27,68,169,49,,,,,1*58
$GPGSA,A,3,08,10,11,16,18,21,27,,,,,,1.9,1.2,1.4,1*20
$GPGSV,2,1,07,08,64,277,49,10,64,120,49,11,22,273,41,16,18,197,45,1*6B
$GPGSV,2,2,07,18,42,066,47,21,16,085,42,27,68,169,49,,,,,1*58
$GPRMC,170919.40,A,5746.8234672,N,01246.2629522,E,4.71,324.42,040716,0.0,E,D*33
$GPGGA,170919.40,5746.8234672,N,01246.2629522,E,5,07,1.0,193.826,M,35.049,M,1.2,*49
$GPGSA,A,3,08,10,11,16,18,21,27,,,,,,1.9,1.2,1.4,1*20
$GPGSV,2,1,07,08,64,277,49,10,64,120,49,11,22,273,41,16,18,197,45,1*6B
$GPGSV,2,2,07,18,42,066,47,21,16,085,42,27,68,169,49,,,,,1*58
$GPRMC,170919.60,A,5746.8237336,N,01246.2628230,E,4.86,351.47,040716,0.0,E,D*3D
$GPGGA,170919.60,5746.8237336,N,01246.2628230,E,5,07,1.0,193.818,M,35.049,M,1.4,*43
$GPGSA,A,3,08,10,11,16,18,21,27,,,,,,1.9,1.2,1.4,1*20
$GPGSV,2,1,07,08,64,277,49,10,64,120,49,11,22,273,41,16,18,197,45,1*6B
$GPGSV,2,2,07,18,42,066,47,21,16,085,42,27,68,169,49,,,,,1*58
$GPGSA,A,3,08,10,11,16,18,21,27,,,,,,1.9,1.2,1.4,1*20
$GPGSV,2,1,07,08,64,277,49,10,64,120,49,11,22,273,41,16,18,197,45,1*6B
$GPGSV,2,2,07,18,42,066,47,21,16,085,42,27,68,169,49,,,,,1*58
$GPRMC,170919.80,A,5746.8240075,N,01246.2627267,E,2.74,341.58,040716,0.0,E,D*3E
$GPGGA,170919.80,5746.8240075,N,01246.2627267,E,5,07,1.0,193.817,M,35.049,M,1.6,*49
$GPGSA,A,3,08,10,11,16,18,21,27,,,,,,1.9,1.2,1.4,1*20
$GPGSV,2,1,07,08,64,277,49,10,64,120,49,11,22,273,41,16,18,197,45,1*6B
$GPGSV,2,2,07,18,42,066,47,21,16,085,42,27,68,169,49,,,,,1*58
$GPGSA,A,3,08,10,11,16,18,21,27,,,,,,1.9,1.2,1.4,1*20
$GPGSV,2,1,07,08,64,277,49,10,64,120,49,11,22,273,41,16,18,197,45,1*6B
$GPGSV,2,2,07,18,42,066,47,21,16,085,42,27,68,169,49,,,,,1*58
$GPRMC,170920.10,A,5746.8244221,N,01246.2626313,E,4.23,347.05,040716,0.0,E,D*33
$GPGGA,170920.10,5746.8244221,N,01246.2626313,E,5,07,1.0,193.811,M,35.049,M,0.9,*46
$GPGSA,A,3,08,10,11,16,18,21,27,,,,,,1.9,1.2,1.4,1*20
$GPGSV,2,1,07,08,64,277,49,10,64,120,49,11,22,273,43,16,18,197,44,1*68
$GPGSV,2,2,07,18,42,066,48,21,16,085,44,27,68,169,49,,,,,1*51
$GPRMC,170920.20,A,5746.8245564,N,01246.2626116,E,3.55,177.09,040716,0.0,E,D*3B
$GPGGA,170920.20,5746.8245564,N,01246.2626116,E,5,07,1.0,193.817,M,35.049,M,1.0,*4B
$GPGSA,A,3,08,10,11,16,18,21,27,,,,,,1.9,1.2,1.4,1*20
$GPGSV,2,1,07,08,64,277,49,10,64,120,49,11,22,273,43,16,18,197,44,1*68
$GPGSV,2,2,07,18,42,066,48,21,16,085,44,27,68,169,49,,,,,1*51
$GPRMC,170920.30,A,5746.8246982,N,01246.2625999,E,7.43,356.74,040716,0.0,E,D*39
$GPGGA,170920.30,5746.8246982,N,01246.2625999,E,5,07,1.0,193.820,M,35.049,M,1.1,*44
$GPGSA,A,3,08,10,11,16,18,21,27,,,,,,1.9,1.2,1.4,1*20
$GPGSV,2,1,07,08,64,277,49,10,64,120,49,11,22,273,43,16,18,197,44,1*68
$GPGSV,2,2,07,18,42,066,48,21,16,085,44,27,68,169,49,,,,,1*51
$GPGSA,A,3,08,10,11,16,18,21,27,,,,,,1.9,1.2,1.4,1*20
$GPGSV,2,1,07,08,64,277,49,10,64,120,49,11,22,273,43,16,18,197,44,1*68
$GPGSV,2,2,07,18,42,066,48,21,16,085,44,27,68,169,49,,,,,1*51
$GPRMC,170920.50,A,5746.8249741,N,01246.2625889,E,3.32,28.06,040716,0.0,E,D*0C
$GPGGA,170920.50,5746.8249741,N,01246.2625889,E,5,07,1.0,193.818,M,35.049,M,1.3,*45
$GPRMC,170920.60,A,5746.8251142,N,01246.2625875,E,9.00,355.29,040716,0.0,E,D*3F
$GPGGA,170920.60,5746.8251142,N,01246.2625875,E,5,07,1.0,193.816,M,35.049,M,1.4,*40
$GPGSA,A,3,08,10,11,16,18,21,27,,,,,,1.9,1.2,1.4,1*20
$GPGSV,2,1,07,08,64,277,49,10,64,120,49,11,22,273,43,16,18,197,44,1*68
$GPGSV,2,2,07,18,42,066,48,21,16,085,44,27,68,169,49,,,,,1*51
$GPRMC,170920.80,A,5746.8253944,N,01246.2625905,E,7.13,351.58,040716,0.0,E,D*35
$GPGGA,170920.80,5746.8253944,N,01246.2625905,E,5,07,1.0,193.810,M,35.049,M,1.6,*40
$GPGSA,A,3,08,10,11,16,18,21,27,,,,,,1.9,1.2,1.4,1*20
$GPGSV,2,1,07,08,64,277,49,10,64,120,49,11,22,273,43,16,18,197,44,1*68
$GPGSV,2,2,07,18,42,066,48,21,16,085,44,27,68,169,49,,,,,1*51
$GPGSA,A,3,08,10,11,16,18,21,27,,,,,,1.9,1.2,1.4,1*20
$GPGSV,2,1,07,08,64,277,49,10,64,120,49,11,22,273,43,16,18,197,44,1*68
$GPGSV,2,2,07,18,42,066,48,21,16,085,44,27,68,169,49,,,,,1*51
$GPRMC,170921.00,A,5746.8256710,N,01246.2626128,E,3.70,13.26,040716,0.0,E,D*0F
$GPGGA,170921.00,5746.8256710,N,01246.2626128,E,5,07,1.0,193.809,M,35.049,M,1.8,*41
$GPGSA,A,3,08,10,11,16,18,21,27,,,,,,1.9,1.2,1.4,1*20
$GPGSV,2,1,07,08,64,277,49,10,64,120,50,11,22,273,46,16,18,197,44,1*65
$GPGSV,2,2,07,18,42,066,49,21,16,085,45,27,68,169,49,,,,,1*51
$GPRMC,170921.10,A,5746.8258093,N,01246.2626256,E,8.37,12.40,040716,0.0,E,D*0F
$GPGGA,170921.10,5746.8258093,N,01246.2626256,E,5,07,1.0,193.809,M,35.049,M,1.9,*49
$GPGSA,A,3,08,10,11,16,18,21,27,,,,,,1.9,1.2,1.4,1*20
$GPGSV,2,1,07,08,64,277,49,10,64,120,50,11,22,273,46,16,18,197,44,1*65
$GPGSV,2,2,07,18,42,066,49,21,16,085,45,27,68,169,49,,,,,1*51
$GPRMC,170921.20,A,5746.8259488,N,01246.2626455,E,4.69,51.03,040716,0.0,E,D*01
$GPGGA,170921.20,5746.8259488,N,01246.2626455,E,5,07,1.0,193.805,M,35.049,M,2.0,*46
$GPRMC,170921.30,A,5746.8260875,N,01246.2626660,E,6.49,6.20,040716,0.0,E,D*33
$GPGGA,170921.30,5746.8260875,N,01246.2626660,E,5,07,1.0,193.800,M,35.049,M,2.1,*43
$GPGSA,A,3,08,10,11,16,18,21,27,,,,,,1.9,1.2,1.4,1*20
$GPGSV,2,1,07,08,64,277,49,10,64,120,50,11,22,273,46,16,18,197,44,1*65
$GPGSV,2,2,07,18,42,066,49,21,16,085,45,27,68,169,49,,,,,1*51
$GPRMC,170921.40,A,5746.8262271,N,01246.2626908,E,3.02,17.50,040716,0.0,E,D*04
$GPGGA,170921.40,5746.8262271,N,01246.2626908,E,5,07,1.0,193.800,M,35.049,M,2.2,*4A
$GPGSA,A,3,08,10,11,16,18,21,27,,,,,,1.9,1.2,1.4,1*20
$GPGSV,2,1,07,08,64,277,49,10,64,120,50,11,22,273,46,16,18,197,44,1*65
$GPGSV,2,2,07,18,42,066,49,21,16,085,45,27,68,169,49,,,,,1*51
$GPRMC,170921.60,A,5746.8265000,N,01246.2627772,E,6.50,3.16,040716,0.0,E,D*32
$GPGGA,170921.60,5746.8265000,N,01246.2627772,E,5,07,1.0,193.795,M,35.049,M,2.4,*4C
$GPGSA,A,3,08,10,11,16,18,21,27,,,,,,1.9,1.2,1.4,1*20
$GPGSV,2,1,07,08,64,277,49,10,64,120,50,11,22,273,46,16,18,197,44,1*65
$GPGSV,2,2,07,18,42,066,49,21,16,085,45,27,68,169,49,,,,,1*51
$GPRMC,170921.70,A,5746.8266385,N,01246.2628311,E,9.47,2.09,040716,0.0,E,D*36
$GPGGA,170921.70,5746.8266385,N,01246.2628311,E,5,07,1.0,193.792,M,35.049,M,2.5,*48
$GPGSA,A,3,08,10,11,16,18,21,27,,,,,,1.9,1.2,1.4,1*20
$GPGSV,2,1,07,08,64,277,49,10,64,120,50,11,22,273,46,16,18,197,44,1*65
$GPGSV,2,2,07,18,42,066,49,21,16,085,45,27,68,169,49,,,,,1*51
$GPRMC,170921.80,A,5746.8267732,N,01246.2628957,E,8.00,25.54,040716,0.0,E,D*07
$GPGGA,170921.80,5746.8267732,N,01246.2628957,E,5,07,1.0,193.791,M,35.049,M,2.6,*46
$GPGSA,A,3,08,10,11,16,18,21,27,,,,,,1.9,1.2,1.4,1*20
$GPGSV,2,1,07,08,64,277,49,10,64,120,50,11,22,273,46,16,18,197,44,1*65
$GPGSV,2,2,07,18,42,066,49,21,16,085,45,27,68,169,49,,,,,1*51
$GPRMC,170921.90,A,5746.8269041,N,01246.2629697,E,8.19,19.77,040716,0.0,E,D*0F
$GPGGA,170921.90,5746.8269041,N,01246.2629697,E,5,07,1.0,193.789,M,35.049,M,2.7,*40
$GPRMC,170922.00,A,5746.8270345,N,01246.2630490,E,2.62,22.62,040716,0.0,E,D*0D
$GPGGA,170922.00,5746.8270345,N,01246.2630490,E,5,07,1.0,193.788,M,35.049,M,0.8,*44
$GPGSA,A,3,08,10,11,16,18,21,27,,,,,,1.9,1.2,1.4,1*20
$GPGSV,2,1,07,08,64,277,49,10,64,120,50,11,22,273,47,16,18,197,44,1*64
$GPGSV,2,2,07,18,42,066,48,21,16,085,45,27,68,169,49,,,,,1*50
$GPRMC,170922.10,A,5746.8271640,N,01246.2631378,E,7.19,8.28,040716,0.0,E,D*32
$GPGGA,170922.10,5746.8271640,N,01246.2631378,E,5,07,1.0,193.790,M,35.049,M,0.9,*4C
$GPRMC,170922.20,A,5746.8272941,N,01246.2632403,E,9.20,21.59,040716,0.0,E,D*0D
$GPGGA,170922.20,5746.8272941,N,01246.2632403,E,5,07,1.0,193.788,M,35.049,M,1.0,*4B
$GPGSA,A,3,08,10,11,16,18,21,27,,,,,,1.9,1.2,1.4,1*20
$GPGSV,2,1,07,08,64,277,49,10,64,120,50,11,22,273,47,16,18,197,44,1*64
$GPGSV,2,2,07,18,42,066,48,21,16,085,45,27,68,169,49,,,,,1*50
$GPRMC,170922.30,A,5746.8274203,N,01246.2633456,E,7.37,24.51,040716,0.0,E,D*03
$GPGGA,170922.30,5746.8274203,N,01246.2633456,E,5,07,1.0,193.786,M,35.049,M,1.1,*4F
$GPGSA,A,3,08,10,11,16,18,21,27,,,,,,1.9,1.2,1.4,1*20
$GPGSV,2,1,07,08,64,277,49,10,64,120,50,11,22,273,47,16,18,197,44,1*64
$GPGSV,2,2,07,18,42,066,48,21,16,085,45,27,68,169,49,,,,,1*50
$GPRMC,170922.50,A,5746.8276698,N,01246.2635808,E,3.81,32.80,040716,0.0,E,D*02
$GPGGA,170922.50,5746.8276698,N,01246.2635808,E,5,07,1.0,193.778,M,35.049,M,1.3,*4F
$GPRMC,170922.60,A,5746.8277913,N,01246.2637118,E,7.57,21.52,040716,0.0,E,D*04
$GPGGA,170922.60,5746.8277913,N,01246.2637118,E,5,07,1.0,193.774,M,35.049,M,1.4,*40
$GPRMC,170922.70,A,5746.8279093,N,01246.2638523,E,3.60,58.04,040716,0.0,E,D*04
$GPGGA,170922.70,5746.8279093,N,01246.2638523,E,5,07,1.0,193.771,M,35.049,M,1.5,*49
$GPRMC,170922.90,A,5746.8281361,N,01246.2641497,E,5.73,65.03,040716,0.0,E,D*0E
$GPGGA,170922.90,5746.8281361,N,01246.2641497,E,5,07,1.0,193.762,M,35.049,M,1.7,*4E
$GPRMC,170923.00,A,5746.8282471,N,01246.2643098,E,3.70,55.76,040716,0.0,E,D*0E
$GPGGA,170923.00,5746.8282471,N,01246.2643098,E,5,07,1.0,193.759,M,35.049,M,1.8,*4D
$GPRMC,170923.10,A,5746.8283545,N,01246.2644747,E,6.60,15.63,040716,0.0,E,D*0E
$GPGGA,170923.10,5746.8283545,N,01246.2644747,E,5,07,1.0,193.757,M,35.049,M,1.9,*46
$GPGSA,A,3,08,10,11,16,18,21,27,,,,,,1.9,1.2,1.4,1*20
$GPGSV,2,1,07,08,64,277,49,10,64,120,50,11,22,273,47,16,18,197,43,1*63
$GPGSV,2,2,07,18,42,066,49,21,16,085,45,27,68,169,49,,,,,1*51
$GPGSA,A,3,08,10,11,16,18,21,27,,,,,,1.9,1.2,1.4,1*20
$GPGSV,2,1,07,08,64,277,49,10,64,120,50,11,22,273,47,16,18,197,43,1*63
$GPGSV,2,2,07,18,42,066,49,21,16,085,45,27,68,169,49,,,,,1*51
$GPRMC,170923.50,A,5746.8287625,N,01246.2651807,E,3.98,62.81,040716,0.0,E,D*0A
$GPGGA,170923.50,5746.8287625,N,01246.2651807,E,5,07,1.0,193.749,M,35.049,M,2.3,*4A
$GPRMC,170923.70,A,5746.8289578,N,01246.2655528,E,6.37,41.87,040716,0.0,E,D*0E
$GPGGA,170923.70,5746.8289578,N,01246.2655528,E,5,07,1.0,193.747,M,35.049,M,2.5,*41
$GPRMC,170923.80,A,5746.8290527,N,01246.2657432,E,4.21,27.15,040716,0.0,E,D*05
$GPGGA,170923.80,5746.8290527,N,01246.2657432,E,5,07,1.0,193.743,M,35.049,M,2.6,*43
$GPGSA,A,3,08,10,11,16,18,21,27,,,,,,1.9,1.2,1.4,1*20
$GPGSV,2,1,07,08,64,277,49,10,64,120,50,11,22,273,47,16,18,197,43,1*63
$GPGSV,2,2,07,18,42,066,49,21,16,085,45,27,68,169,49,,,,,1*51
$GPGSA,A,3,08,10,11,16,18,21,27,,,,,,1.9,1.2,1.4,1*20
$GPGSV,2,1,07,08,64,277,49,10,64,120,50,11,22,273,47,16,18,197,43,1*63
$GPGSV,2,2,07,18,42,066,49,21,16,085,45,27,68,169,49,,,,,1*51
$GPRMC,170924.10,A,5746.8293244,N,01246.2663195,E,5.69,41.07,040716,0.0,E,D*0B
$GPGGA,170924.10,5746.8293244,N,01246.2663195,E,5,07,1.0,193.730,M,35.049,M,0.9,*4A
$GPRMC,170924.20,A,5746.8294143,N,01246.2665162,E,6.96,27.66,040716,0.0,E,D*01
$GPGGA,170924.20,5746.8294143,N,01246.2665162,E,5,07,1.0,193.730,M,35.049,M,1.0,*4C
$GPGSA,A,3,08,10,11,16,18,21,27,,,,,,1.9,1.2,1.4,1*20
$GPGSV,2,1,07,08,64,277,49,10,64,120,50,11,22,273,46,16,18,197,42,1*63
$GPGSV,2,2,07,18,42,066,48,21,16,085,44,27,68,169,49,,,,,1*51
$GPRMC,170924.30,A,5746.8295037,N,01246.2667180,E,5.50,57.60,040716,0.0,E,D*05
$GPGGA,170924.30,5746.8295037,N,01246.2667180,E,5,07,1.0,193.731,M,35.049,M,1.1,*40
$GPRMC,170924.40,A,5746.8295899,N,01246.2669224,E,6.94,44.24,040716,0.0,E,D*04
$GPGGA,170924.40,5746.8295899,N,01246.2669224,E,5,07,1.0,193.730,M,35.049,M,1.2,*4A
$GPRMC,170924.50,A,5746.8296759,N,01246.2671315,E,4.06,48.83,040716,0.0,E,D*07
$GPGGA,170924.50,5746.8296759,N,01246.2671315,E,5,07,1.0,193.727,M,35.049,M,1.3,*46
$GPRMC,170924.60,A,5746.8297555,N,01246.2673404,E,4.29,58.85,040716,0.0,E,D*04
$GPGGA,170924.60,5746.8297555,N,01246.2673404,E,5,07,1.0,193.719,M,35.049,M,1.4,*45
$GPGSA,A,3,08,10,11,16,18,21,27,,,,,,1.9,1.2,1.4,1*20
$GPGSV,2,1,07,08,64,277,49,10,64,120,50,11,22,273,46,16,18,197,42,1*63
$GPGSV,2,2,07,18,42,066,48,21,16,085,44,27,68,169,49,,,,,1*51
$GPRMC,170924.70,A,5746.8298367,N,01246.2675583,E,5.59,85.52,040716,0.0,E,D*09
$GPGGA,170924.70,5746.8298367,N,01246.2675583,E,5,07,1.0,193.714,M,35.049,M,1.5,*48
$GPGSA,A,3,08,10,11,16,18,21,27,,,,,,1.9,1.2,1.4,1*20
$GPGSV,2,1,07,08,64,277,49,10,64,120,50,11,22,273,46,16,18,197,42,1*63
$GPGSV,2,2,07,18,42,066,48,21,16,085,44,27,68,169,49,,,,,1*51
$GPRMC,170924.90,A,5746.8299826,N,01246.2679992,E,4.21,72.19,040716,0.0,E,D*01
$GPGGA,170924.90,5746.8299826,N,01246.2679992,E,5,07,1.0,193.710,M,35.049,M,1.7,*4F
$GPRMC,170925.20,A,5746.8301700,N,01246.2686937,E,4.18,76.00,040716,0.0,E,D*09
$GPGGA,170925.20,5746.8301700,N,01246.2686937,E,5,07,1.0,193.711,M,35.049,M,2.0,*44
$GPRMC,170925.40,A,5746.8302753,N,01246.2691831,E,4.30,123.04,040716,0.0,E,D*34
$GPGGA,170925.40,5746.8302753,N,01246.2691831,E,5,07,1.0,193.706,M,35.049,M,2.2,*42
$GPRMC,170925.60,A,5746.8303555,N,01246.2696744,E,4.44,88.17,040716,0.0,E,D*08
$GPGGA,170925.60,5746.8303555,N,01246.2696744,E,5,07,1.0,193.697,M,35.049,M,2.4,*40
$GPRMC,170925.80,A,5746.8304202,N,01246.2701834,E,5.16,78.70,040716,0.0,E,D*0B
$GPGGA,170925.80,5746.8304202,N,01246.2701834,E,5,07,1.0,193.681,M,35.049,M,2.6,*4E
$GPRMC,170926.00,A,5746.8304694,N,01246.2706964,E,5.35,96.17,040716,0.0,E,D*08
$GPGGA,170926.00,5746.8304694,N,01246.2706964,E,5,07,1.0,193.676,M,35.049,M,0.8,*49
$GPRMC,170926.20,A,5746.8304953,N,01246.2712111,E,6.32,72.49,040716,0.0,E,D*04
$GPGGA,170926.20,5746.8304953,N,01246.2712111,E,5,07,1.0,193.678,M,35.049,M,1.0,*47
$GPRMC,170926.30,A,5746.8305012,N,01246.2714758,E,5.90,43.87,040716,0.0,E,D*0E
$GPGGA,170926.30,5746.8305012,N,01246.2714758,E,5,07,1.0,193.673,M,35.049,M,1.1,*4C
$GPGSA,A,3,08,10,11,16,18,21,27,,,,,,1.9,1.2,1.4,1*20
$GPGSV,2,1,07,08,64,277,49,10,64,120,50,11,22,273,44,16,18,197,43,1*60
$GPGSV,2,2,07,18,42,066,48,21,16,085,42,27,68,169,50,,,,,1*5F
$GPRMC,170926.40,A,5746.8305029,N,01246.2717347,E,7.14,48.10,040716,0.0,E,D*03
$GPGGA,170926.40,5746.8305029,N,01246.2717347,E,5,07,1.0,193.671,M,35.049,M,1.2,*4B
$GPGSA,A,3,08,10,11,16,18,21,27,,,,,,1.9,1.2,1.4,1*20
$GPGSV,2,1,07,08,64,277,49,10,64,120,50,11,22,273,44,16,18,197,43,1*60
$GPGSV,2,2,07,18,42,066,48,21,16,085,42,27,68,169,50,,,,,1*5F
$GPRMC,170926.50,A,5746.8305004,N,01246.2719954,E,6.89,75.82,040716,0.0,E,D*0B
$GPGGA,170926.50,5746.8305004,N,01246.2719954,E,5,07,1.0,193.667,M,35.049,M,1.3,*45
$GPGSA,A,3,08,10,11,16,18,21,27,,,,,,1.9,1.2,1.4,1*20
$GPGSV,2,1,07,08,64,277,49,10,64,120,50,11,22,273,44,16,18,197,43,1*60
$GPGSV,2,2,07,18,42,066,48,21,16,085,42,27,68,169,50,,,,,1*5F
$GPRMC,170926.60,A,5746.8305004,N,01246.2722567,E,9.00,129.34,040716,0.0,E,D*37
$GPGGA,170926.60,5746.8305004,N,01246.2722567,E,5,07,1.0,193.661,M,35.049,M,1.4,*43
$GPGSA,A,3,08,10,11,16,18,21,27,,,,,,1.9,1.2,1.4,1*20
$GPGSV,2,1,07,08,64,277,49,10,64,120,50,11,22,273,44,16,18,197,43,1*60
$GPGSV,2,2,07,18,42,066,48,21,16,085,42,27,68,169,50,,,,,1*5F
$GPGSA,A,3,08,10,11,16,18,21,27,,,,,,1.9,1.2,1.4,1*20
$GPGSV,2,1,07,08,64,277,49,10,64,120,50,11,22,273,44,16,18,197,43,1*60
$GPGSV,2,2,07,18,42,066,48,21,16,085,42,27,68,169,50,,,,,1*5F
$GPRMC,170926.90,A,5746.8304822,N,01246.2730354,E,7.31,102.71,040716,0.0,E,D*34
$GPGGA,170926.90,5746.8304822,N,01246.2730354,E,5,07,1.0,193.651,M,35.049,M,1.7,*44
$GPRMC,170927.00,A,5746.8304721,N,01246.2732939,E,6.39,124.48,040716,0.0,E,D*34
$GPGGA,170927.00,5746.8304721,N,01246.2732939,E,5,07,1.0,193.648,M,35.049,M,0.8,*45
$GPRMC,170927.10,A,5746.8304625,N,01246.2735512,E,6.78,71.22,040716,0.0,E,D*0A
$GPGGA,170927.10,5746.8304625,N,01246.2735512,E,5,07,1.0,193.646,M,35.049,M,0.9,*4C
$GPRMC,170927.30,A,5746.8304440,N,01246.2740728,E,4.53,44.24,040716,0.0,E,D*0B
$GPGGA,170927.30,5746.8304440,N,01246.2740728,E,5,07,1.0,193.643,M,35.049,M,1.1,*4A
$GPRMC,170927.40,A,5746.8304293,N,01246.2743318,E,6.05,61.23,040716,0.0,E,D*01
$GPGGA,170927.40,5746.8304293,N,01246.2743318,E,5,07,1.0,193.642,M,35.049,M,1.2,*43
$GPRMC,170927.50,A,5746.8304133,N,01246.2745852,E,7.03,83.43,040716,0.0,E,D*07
$GPGGA,170927.50,5746.8304133,N,01246.2745852,E,5,07,1.0,193.641,M,35.049,M,1.3,*4A
$GPRMC,170927.70,A,5746.8303639,N,01246.2751014,E,6.25,75.65,040716,0.0,E,D*08
$GPGGA,170927.70,5746.8303639,N,01246.2751014,E,5,07,1.0,193.639,M,35.049,M,1.5,*44
$GPRMC,170927.80,A,5746.8303385,N,01246.2753550,E,5.72,114.08,040716,0.0,E,D*3E
$GPGGA,170927.80,5746.8303385,N,01246.2753550,E,5,07,1.0,193.635,M,35.049,M,1.6,*41
$GPGSA,A,3,08,10,11,16,18,21,27,,,,,,1.9,1.2,1.4,1*20
$GPGSV,2,1,07,08,64,277,49,10,64,120,50,11,22,273,43,16,18,197,43,1*67
$GPGSV,2,2,07,18,42,066,48,21,16,085,42,27,68,169,50,,,,,1*5F
$GPRMC,170927.90,A,5746.8303038,N,01246.2756064,E,6.80,108.40,040716,0.0,E,D*32
$GPGGA,170927.90,5746.8303038,N,01246.2756064,E,5,07,1.0,193.635,M,35.049,M,1.7,*43
$GPRMC,170928.00,A,5746.8302643,N,01246.2758548,E,5.08,122.06,040716,0.0,E,D*33
$GPGGA,170928.00,5746.8302643,N,01246.2758548,E,5,07,1.0,193.629,M,35.049,M,0.8,*48
$GPGSA,A,3,08,10,11,16,18,21,27,,,,,,1.9,1.2,1.4,1*20
$GPGSV,2,1,07,08,64,277,49,10,64,120,50,11,22,273,43,16,18,197,45,1*61
$GPGSV,2,2,07,18,42,066,49,21,16,085,42,27,68,169,49,,,,,1*56
$GPRMC,170928.10,A,5746.8302218,N,01246.2761027,E,4.20,101.03,040716,0.0,E,D*31
$GPGGA,170928.10,5746.8302218,N,01246.2761027,E,5,07,1.0,193.626,M,35.049,M,0.9,*4B
$GPRMC,170928.20,A,5746.8301753,N,01246.2763492,E,6.73,133.58,040716,0.0,E,D*38
$GPGGA,170928.20,5746.8301753,N,01246.2763492,E,5,07,1.0,193.625,M,35.049,M,1.0,*42
$GPGSA,A,3,08,10,11,16,18,21,27,,,,,,1.9,1.2,1.4,1*20
$GPGSV,2,1,07,08,64,277,49,10,64,120,50,11,22,273,43,16,18,197,45,1*61
$GPGSV,2,2,07,18,42,066,49,21,16,085,42,27,68,169,49,,,,,1*56
$GPRMC,170928.50,A,5746.8300083,N,01246.2770595,E,4.54,121.15,040716,0.0,E,D*3D
$GPGGA,170928.50,5746.8300083,N,01246.2770595,E,5,07,1.0,193.625,M,35.049,M,1.3,*49
$GPRMC,170929.00,A,5746.8296445,N,01246.2781678,E,8.19,136.64,040716,0.0,E,D*32
$GPGGA,170929.00,5746.8296445,N,01246.2781678,E,5,07,1.0,193.616,M,35.049,M,1.8,*48
$GPRMC,170929.20,A,5746.8294714,N,01246.2785753,E,4.31,94.36,040716,0.0,E,D*01
$GPGGA,170929.20,5746.8294714,N,01246.2785753,E,5,07,1.0,193.615,M,35.049,M,2.0,*4B
$GPRMC,170929.40,A,5746.8292843,N,01246.2789639,E,5.96,151.75,040716,0.0,E,D*3E
$GPGGA,170929.40,5746.8292843,N,01246.2789639,E,5,07,1.0,193.613,M,35.049,M,2.2,*43
$GPRMC,170929.60,A,5746.8290924,N,01246.2793347,E,4.39,122.23,040716,0.0,E,D*3A
$GPGGA,170929.60,5746.8290924,N,01246.2793347,E,5,07,1.0,193.615,M,35.049,M,2.4,*44
$GPRMC,170929.80,A,5746.8288899,N,01246.2796897,E,8.81,145.87,040716,0.0,E,D*39
$GPGGA,170929.80,5746.8288899,N,01246.2796897,E,5,07,1.0,193.611,M,35.049,M,2.6,*41
$GPRMC,170930.00,A,5746.8286813,N,01246.2800537,E,5.18,90.01,040716,0.0,E,D*08
$GPGGA,170930.00,5746.8286813,N,01246.2800537,E,5,07,1.0,193.612,M,35.049,M,0.8,*45
$GPRMC,170930.20,A,5746.8284691,N,01246.2803880,E,7.14,74.83,040716,0.0,E,D*00
