$GPGSA,A,3,08,10,15,16,18,21,27,,,,,,2.3,1.3,1.9,1*21
$GPGSV,2,1,07,08,53,287,48,10,58,143,49,15,18,040,43,16,30,200,45,1*61
$GPGSV,2,2,07,18,49,078,47,21,26,081,41,27,78,200,49,,,,,1*55
$GPRMC,164217.50,A,5746.8304891,N,01246.2712341,E,5.27,91.11,040716,0.0,E,D*00
$GPGGA,164217.50,5746.8304891,N,01246.2712341,E,5,07,1.0,193.639,M,35.049,M,1.3,*42
$GPRMC,164217.70,A,5746.8305014,N,01246.2717500,E,5.05,79.96,040716,0.0,E,D*09
$GPGGA,164217.70,5746.8305014,N,01246.2717500,E,5,07,1.0,193.633,M,35.049,M,1.5,*4E
$GPRMC,164217.90,A,5746.8305015,N,01246.2722718,E,8.72,103.90,040716,0.0,E,D*3C
$GPGGA,164217.90,5746.8305015,N,01246.2722718,E,5,07,1.0,193.626,M,35.049,M,1.7,*4A
$GPRMC,164218.00,A,5746.8304942,N,01246.2725344,E,4.63,101.37,040716,0.0,E,D*39
$GPGGA,164218.00,5746.8304942,N,01246.2725344,E,5,07,1.0,193.625,M,35.049,M,1.8,*40
$GPRMC,164218.10,A,5746.8304897,N,01246.2727912,E,5.09,42.72,040716,0.0,E,D*00
$GPGGA,164218.10,5746.8304897,N,01246.2727912,E,5,07,1.0,193.620,M,35.049,M,1.9,*47
$GPRMC,164218.20,A,5746.8304813,N,01246.2730546,E,5.06,66.64,040716,0.0,E,D*0A
$GPGGA,164218.20,5746.8304813,N,01246.2730546,E,5,07,1.0,193.616,M,35.049,M,2.0,*4C
$GPGSA,A,3,08,10,15,16,18,21,27,,,,,,2.3,1.3,1.9,1*21
$GPGSV,2,1,07,08,53,287,48,10,58,143,49,15,18,040,41,16,30,200,45,1*63
$GPGSV,2,2,07,18,49,078,47,21,26,081,41,27,78,200,49,,,,,1*55
$GPRMC,164218.30,A,5746.8304715,N,01246.2733161,E,6.62,102.61,040716,0.0,E,D*37
$GPGGA,164218.30,5746.8304715,N,01246.2733161,E,5,07,1.0,193.614,M,35.049,M,2.1,*45
$GPGSA,A,3,08,10,15,16,18,21,27,,,,,,2.3,1.3,1.9,1*21
$GPGSV,2,1,07,08,53,287,48,10,58,143,49,15,18,040,41,16,30,200,45,1*63
$GPGSV,2,2,07,18,49,078,47,21,26,081,41,27,78,200,49,,,,,1*55
$GPRMC,164218.40,A,5746.8304592,N,01246.2735737,E,6.46,86.75,040716,0.0,E,D*00
$GPGGA,164218.40,5746.8304592,N,01246.2735737,E,5,07,1.0,193.618,M,35.049,M,2.2,*43
$GPGSA,A,3,08,10,15,16,18,21,27,,,,,,2.3,1.3,1.9,1*21
$GPGSV,2,1,07,08,53,287,48,10,58,143,49,15,18,040,41,16,30,200,45,1*63
$GPGSV,2,2,07,18,49,078,47,21,26,081,41,27,78,200,49,,,,,1*55
$GPRMC,164218.50,A,5746.8304459,N,01246.2738309,E,9.30,95.21,040716,0.0,E,D*0E
$GPGGA,164218.50,5746.8304459,N,01246.2738309,E,5,07,1.0,193.613,M,35.049,M,2.3,*4A
$GPGSA,A,3,08,10,15,16,18,21,27,,,,,,2.3,1.3,1.9,1*21
$GPGSV,2,1,07,08,53,287,48,10,58,143,49,15,18,040,41,16,30,200,45,1*63
$GPGSV,2,2,07,18,49,078,47,21,26,081,41,27,78,200,49,,,,,1*55
$GPRMC,164218.60,A,5746.8304300,N,01246.2740921,E,5.70,96.16,040716,0.0,E,D*06
$GPGGA,164218.60,5746.8304300,N,01246.2740921,E,5,07,1.0,193.616,M,35.049,M,2.4,*4F
$GPRMC,164218.70,A,5746.8304114,N,01246.2743479,E,4.61,58.78,040716,0.0,E,D*08
$GPGGA,164218.70,5746.8304114,N,01246.2743479,E,5,07,1.0,193.614,M,35.049,M,2.5,*49
$GPGSA,A,3,08,10,15,16,18,21,27,,,,,,2.3,1.3,1.9,1*21
$GPGSV,2,1,07,08,53,287,48,10,58,143,49,15,18,040,41,16,30,200,45,1*63
$GPGSV,2,2,07,18,49,078,47,21,26,081,41,27,78,200,49,,,,,1*55
$GPRMC,164218.80,A,5746.8303929,N,01246.2746051,E,5.73,92.32,040716,0.0,E,D*07
$GPGGA,164218.80,5746.8303929,N,01246.2746051,E,5,07,1.0,193.612,M,35.049,M,2.6,*49
$GPGSA,A,3,08,10,15,16,18,21,27,,,,,,2.3,1.3,1.9,1*21
$GPGSV,2,1,07,08,53,287,48,10,58,143,49,15,18,040,41,16,30,200,45,1*63
$GPGSV,2,2,07,18,49,078,47,21,26,081,41,27,78,200,49,,,,,1*55
$GPRMC,164218.90,A,5746.8303733,N,01246.2748633,E,6.66,110.83,040716,0.0,E,D*39
$GPGGA,164218.90,5746.8303733,N,01246.2748633,E,5,07,1.0,193.614,M,35.049,M,0.7,*44
$GPGSA,A,3,08,10,15,16,18,21,27,,,,,,2.3,1.3,1.9,1*21
$GPGSV,2,1,07,08,53,287,48,10,58,143,49,15,18,040,41,16,30,200,45,1*63
$GPGSV,2,2,07,18,49,078,47,21,26,081,41,27,78,200,49,,,,,1*55
$GPRMC,164219.00,A,5746.8303496,N,01246.2751189,E,4.88,78.50,040716,0.0,E,D*00
$GPGGA,164219.00,5746.8303496,N,01246.2751189,E,5,07,1.0,193.607,M,35.049,M,0.8,*43
$GPGSA,A,3,08,10,15,16,18,21,27,,,,,,2.3,1.3,1.9,1*21
$GPGSV,2,1,07,08,53,287,48,10,58,143,49,15,18,040,41,16,30,200,45,1*63
$GPGSV,2,2,07,18,49,078,47,21,26,081,43,27,78,200,49,,,,,1*57
$GPRMC,164219.10,A,5746.8303200,N,01246.2753736,E,6.42,140.53,040716,0.0,E,D*35
$GPGGA,164219.10,5746.8303200,N,01246.2753736,E,5,07,1.0,193.604,M,35.049,M,0.9,*49
$GPGSA,A,3,08,10,15,16,18,21,27,,,,,,2.3,1.3,1.9,1*21
$GPGSV,2,1,07,08,53,287,48,10,58,143,49,15,18,040,41,16,30,200,45,1*63
$GPGSV,2,2,07,18,49,078,47,21,26,081,43,27,78,200,49,,,,,1*57
$GPRMC,164219.20,A,5746.8302852,N,01246.2756272,E,6.45,104.34,040716,0.0,E,D*3C
$GPGGA,164219.20,5746.8302852,N,01246.2756272,E,5,07,1.0,193.599,M,35.049,M,1.0,*49
$GPGSA,A,3,08,10,15,16,18,21,27,,,,,,2.3,1.3,1.9,1*21
$GPGSV,2,1,07,08,53,287,48,10,58,143,49,15,18,040,41,16,30,200,45,1*63
$GPGSV,2,2,07,18,49,078,47,21,26,081,43,27,78,200,49,,,,,1*57
$GPRMC,164219.30,A,5746.8302505,N,01246.2758787,E,12.40,105.96,040716,0.0,E,D*0A
$GPGGA,164219.30,5746.8302505,N,01246.2758787,E,5,07,1.0,193.597,M,35.049,M,1.1,*49
$GPRMC,164219.40,A,5746.8302085,N,01246.2761254,E,8.25,104.56,040716,0.0,E,D*34
$GPGGA,164219.40,5746.8302085,N,01246.2761254,E,5,07,1.0,193.593,M,35.049,M,1.2,*45
$GPGSA,A,3,08,10,15,16,18,21,27,,,,,,2.3,1.3,1.9,1*21
$GPGSV,2,1,07,08,53,287,48,10,58,143,49,15,18,040,41,16,30,200,45,1*63
$GPGSV,2,2,07,18,49,078,47,21,26,081,43,27,78,200,49,,,,,1*57
$GPRMC,164219.50,A,5746.8301632,N,01246.2763740,E,9.02,110.48,040716,0.0,E,D*30
$GPGGA,164219.50,5746.8301632,N,01246.2763740,E,5,07,1.0,193.596,M,35.049,M,1.3,*4B
$GPGSA,A,3,08,10,15,16,18,21,27,,,,,,2.3,1.3,1.9,1*21
$GPGSV,2,1,07,08,53,287,48,10,58,143,49,15,18,040,41,16,30,200,45,1*63
$GPGSV,2,2,07,18,49,078,47,21,26,081,43,27,78,200,49,,,,,1*57
$GPRMC,164219.60,A,5746.8301132,N,01246.2766185,E,7.18,110.62,040716,0.0,E,D*33
$GPGGA,164219.60,5746.8301132,N,01246.2766185,E,5,07,1.0,193.595,M,35.049,M,1.4,*41
$GPRMC,164219.70,A,5746.8300613,N,01246.2768572,E,7.27,102.89,040716,0.0,E,D*3F
$GPGGA,164219.70,5746.8300613,N,01246.2768572,E,5,07,1.0,193.595,M,35.049,M,1.5,*46
$GPGSA,A,3,08,10,15,16,18,21,27,,,,,,2.3,1.3,1.9,1*21
$GPGSV,2,1,07,08,53,287,48,10,58,143,49,15,18,040,41,16,30,200,45,1*63
$GPGSV,2,2,07,18,49,078,47,21,26,081,43,27,78,200,49,,,,,1*57
$GPRMC,164219.80,A,5746.8300015,N,01246.2770917,E,9.23,95.49,040716,0.0,E,D*0F
$GPGGA,164219.80,5746.8300015,N,01246.2770917,E,5,07,1.0,193.591,M,35.049,M,1.6,*48
$GPGSA,A,3,08,10,15,16,18,21,27,,,,,,2.3,1.3,1.9,1*21
$GPGSV,2,1,07,08,53,287,48,10,58,143,49,15,18,040,41,16,30,200,45,1*63
$GPGSV,2,2,07,18,49,078,47,21,26,081,43,27,78,200,49,,,,,1*57
$GPRMC,164220.00,A,5746.8298718,N,01246.2775572,E,12.11,128.13,040716,0.0,E,D*0E
$GPGGA,164220.00,5746.8298718,N,01246.2775572,E,5,07,1.0,193.591,M,35.049,M,1.8,*44
$GPRMC,164220.10,A,5746.8297998,N,01246.2777779,E,2.23,121.24,040716,0.0,E,D*30
$GPGGA,164220.10,5746.8297998,N,01246.2777779,E,5,07,1.0,193.585,M,35.049,M,1.9,*43
$GPGSA,A,3,08,10,15,16,18,21,27,,,,,,2.3,1.3,1.9,1*21
$GPGSV,2,1,07,08,53,287,49,10,58,143,49,15,18,040,43,16,30,200,45,1*60
$GPGSV,2,2,07,18,49,078,47,21,26,081,43,27,78,200,49,,,,,1*57
$GPRMC,164220.20,A,5746.8297218,N,01246.2780009,E,7.37,119.07,040716,0.0,E,D*32
$GPGGA,164220.20,5746.8297218,N,01246.2780009,E,5,07,1.0,193.584,M,35.049,M,2.0,*40
$GPGSA,A,3,08,10,15,16,18,21,27,,,,,,2.3,1.3,1.9,1*21
$GPGSV,2,1,07,08,53,287,49,10,58,143,49,15,18,040,43,16,30,200,45,1*60
$GPGSV,2,2,07,18,49,078,47,21,26,081,43,27,78,200,49,,,,,1*57
$GPRMC,164220.30,A,5746.8296425,N,01246.2782128,E,8.11,123.61,040716,0.0,E,D*38
$GPGGA,164220.30,5746.8296425,N,01246.2782128,E,5,07,1.0,193.581,M,35.049,M,2.1,*4C
$GPGSA,A,3,08,10,15,16,18,21,27,,,,,,2.3,1.3,1.9,1*21
$GPGSV,2,1,07,08,53,287,49,10,58,143,49,15,18,040,43,16,30,200,45,1*60
$GPGSV,2,2,07,18,49,078,47,21,26,081,43,27,78,200,49,,,,,1*57
$GPGSA,A,3,08,10,15,16,18,21,27,,,,,,2.3,1.3,1.9,1*21
$GPGSV,2,1,07,08,53,287,49,10,58,143,49,15,18,040,43,16,30,200,45,1*60
$GPGSV,2,2,07,18,49,078,47,21,26,081,43,27,78,200,49,,,,,1*57
$GPRMC,164220.50,A,5746.8294706,N,01246.2786176,E,13.66,78.81,040716,0.0,E,D*3A
$GPGGA,164220.50,5746.8294706,N,01246.2786176,E,5,07,1.0,193.570,M,35.049,M,2.3,*49
$GPRMC,164220.60,A,5746.8293787,N,01246.2788184,E,4.33,123.22,040716,0.0,E,D*34
$GPGGA,164220.60,5746.8293787,N,01246.2788184,E,5,07,1.0,193.566,M,35.049,M,2.4,*47
$GPGSA,A,3,08,10,15,16,18,21,27,,,,,,2.3,1.3,1.9,1*21
$GPGSV,2,1,07,08,53,287,49,10,58,143,49,15,18,040,43,16,30,200,45,1*60
$GPGSV,2,2,07,18,49,078,47,21,26,081,43,27,78,200,49,,,,,1*57
$GPGSA,A,3,08,10,15,16,18,21,27,,,,,,2.3,1.3,1.9,1*21
$GPGSV,2,1,07,08,53,287,49,10,58,143,49,15,18,040,43,16,30,200,45,1*60
$GPGSV,2,2,07,18,49,078,47,21,26,081,43,27,78,200,49,,,,,1*57
$GPGSA,A,3,08,10,15,16,18,21,27,,,,,,2.3,1.3,1.9,1*21
$GPGSV,2,1,07,08,53,287,49,10,58,143,49,15,18,040,43,16,30,200,45,1*60
$GPGSV,2,2,07,18,49,078,47,21,26,081,43,27,78,200,49,,,,,1*57
$GPRMC,164220.90,A,5746.8290890,N,01246.2793761,E,7.94,135.39,040716,0.0,E,D*35
$GPGGA,164220.90,5746.8290890,N,01246.2793761,E,5,07,1.0,193.565,M,35.049,M,2.7,*45
$GPGSA,A,3,08,10,15,16,18,21,27,,,,,,2.3,1.3,1.9,1*21
$GPGSV,2,1,07,08,53,287,49,10,58,143,49,15,18,040,43,16,30,200,45,1*60
$GPGSV,2,2,07,18,49,078,47,21,26,081,43,27,78,200,49,,,,,1*57
$GPRMC,164221.10,A,5746.8288820,N,01246.2797272,E,2.51,135.56,040716,0.0,E,D*38
$GPGGA,164221.10,5746.8288820,N,01246.2797272,E,5,07,1.0,193.567,M,35.049,M,2.9,*41
$GPGSA,A,3,08,10,15,16,18,21,27,,,,,,2.3,1.3,1.9,1*21
$GPGSV,2,1,07,08,53,287,48,10,58,143,49,15,18,040,46,16,30,200,46,1*67
$GPGSV,2,2,07,18,49,078,47,21,26,081,43,27,78,200,49,,,,,1*57
$GPGSA,A,3,08,10,15,16,18,21,27,,,,,,2.3,1.3,1.9,1*21
$GPGSV,2,1,07,08,53,287,48,10,58,143,49,15,18,040,46,16,30,200,46,1*67
$GPGSV,2,2,07,18,49,078,47,21,26,081,43,27,78,200,49,,,,,1*57
$GPGSA,A,3,08,10,15,16,18,21,27,,,,,,2.3,1.3,1.9,1*21
$GPGSV,2,1,07,08,53,287,48,10,58,143,49,15,18,040,46,16,30,200,46,1*67
$GPGSV,2,2,07,18,49,078,47,21,26,081,43,27,78,200,49,,,,,1*57
$GPGSA,A,3,08,10,15,16,18,21,27,,,,,,2.3,1.3,1.9,1*21
$GPGSV,2,1,07,08,53,287,48,10,58,143,49,15,18,040,46,16,30,200,46,1*67
$GPGSV,2,2,07,18,49,078,47,21,26,081,43,27,78,200,49,,,,,1*57
$GPRMC,164221.50,A,5746.8284516,N,01246.2803897,E,9.76,143.63,040716,0.0,E,D*32
$GPGGA,164221.50,5746.8284516,N,01246.2803897,E,5,07,1.0,193.563,M,35.049,M,3.3,*4D
$GPGSA,A,3,08,10,15,16,18,21,27,,,,,,2.3,1.3,1.9,1*21
$GPGSV,2,1,07,08,53,287,48,10,58,143,49,15,18,040,46,16,30,200,46,1*67
$GPGSV,2,2,07,18,49,078,47,21,26,081,43,27,78,200,49,,,,,1*57
$GPRMC,164221.60,A,5746.8283402,N,01246.2805413,E,9.51,133.88,040716,0.0,E,D*33
$GPGGA,164221.60,5746.8283402,N,01246.2805413,E,5,07,1.0,193.562,M,35.049,M,3.4,*4D
$GPGSA,A,3,08,10,15,16,18,21,27,,,,,,2.3,1.3,1.9,1*21
$GPGSV,2,1,07,08,53,287,48,10,58,143,49,15,18,040,46,16,30,200,46,1*67
$GPGSV,2,2,07,18,49,078,47,21,26,081,43,27,78,200,49,,,,,1*57
$GPGSA,A,3,08,10,15,16,18,21,27,,,,,,2.3,1.3,1.9,1*21
$GPGSV,2,1,07,08,53,287,48,10,58,143,49,15,18,040,46,16,30,200,46,1*67
$GPGSV,2,2,07,18,49,078,47,21,26,081,43,27,78,200,49,,,,,1*57
$GPRMC,164221.80,A,5746.8281149,N,01246.2808478,E,4.54,151.85,040716,0.0,E,D*34
$GPGGA,164221.80,5746.8281149,N,01246.2808478,E,5,07,1.0,193.558,M,35.049,M,3.6,*40
$GPGSA,A,3,08,10,15,16,18,21,27,,,,,,2.3,1.3,1.9,1*21
$GPGSV,2,1,07,08,53,287,48,10,58,143,49,15,18,040,46,16,30,200,46,1*67
$GPGSV,2,2,07,18,49,078,47,21,26,081,43,27,78,200,49,,,,,1*57
$GPGSA,A,3,08,10,15,16,18,21,27,,,,,,2.3,1.3,1.9,1*21
$GPGSV,2,1,07,08,53,287,48,10,58,143,49,15,18,040,46,16,30,200,46,1*67
$GPGSV,2,2,07,18,49,078,47,21,26,081,43,27,78,200,49,,,,,1*57
$GPRMC,164222.00,A,5746.8278867,N,01246.2811398,E,4.64,159.94,040716,0.0,E,D*36
$GPGGA,164222.00,5746.8278867,N,01246.2811398,E,5,07,1.0,193.563,M,35.049,M,0.8,*4C
$GPRMC,164222.10,A,5746.8277693,N,01246.2812769,E,5.92,132.21,040716,0.0,E,D*3F
$GPGGA,164222.10,5746.8277693,N,01246.2812769,E,5,07,1.0,193.561,M,35.049,M,0.9,*4D
$GPRMC,164222.20,A,5746.8276514,N,01246.2814105,E,6.88,135.75,040716,0.0,E,D*35
$GPGGA,164222.20,5746.8276514,N,01246.2814105,E,5,07,1.0,193.558,M,35.049,M,1.0,*4B
$GPRMC,164222.40,A,5746.8274113,N,01246.2816761,E,5.59,148.30,040716,0.0,E,D*30
$GPGGA,164222.40,5746.8274113,N,01246.2816761,E,5,07,1.0,193.554,M,35.049,M,1.2,*44
$GPGSA,A,3,08,10,15,16,18,21,27,,,,,,2.3,1.3,1.9,1*21
$GPGSV,2,1,07,08,53,287,48,10,58,143,50,15,18,040,47,16,30,200,46,1*6E
$GPGSV,2,2,07,18,49,078,47,21,26,081,42,27,78,200,50,,,,,1*5E
$GPRMC,164222.50,A,5746.8272879,N,01246.2817973,E,6.51,153.91,040716,0.0,E,D*34
$GPGGA,164222.50,5746.8272879,N,01246.2817973,E,5,07,1.0,193.554,M,35.049,M,1.3,*4B
$GPRMC,164222.60,A,5746.8271640,N,01246.2819130,E,5.61,156.16,040716,0.0,E,D*3B
$GPGGA,164222.60,5746.8271640,N,01246.2819130,E,5,07,1.0,193.557,M,35.049,M,1.4,*4A
$GPGSA,A,3,08,10,15,16,18,21,27,,,,,,2.3,1.3,1.9,1*21
$GPGSV,2,1,07,08,53,287,48,10,58,143,50,15,18,040,47,16,30,200,46,1*6E
$GPGSV,2,2,07,18,49,078,47,21,26,081,42,27,78,200,50,,,,,1*5E
$GPRMC,164222.70,A,5746.8270361,N,01246.2820156,E,7.07,137.97,040716,0.0,E,D*3B
$GPGGA,164222.70,5746.8270361,N,01246.2820156,E,5,07,1.0,193.556,M,35.049,M,1.5,*46
$GPRMC,164222.80,A,5746.8269065,N,01246.2821153,E,6.22,160.17,040716,0.0,E,D*33
$GPGGA,164222.80,5746.8269065,N,01246.2821153,E,5,07,1.0,193.554,M,35.049,M,1.6,*43
$GPGSA,A,3,08,10,15,16,18,21,27,,,,,,2.3,1.3,1.9,1*21
$GPGSV,2,1,07,08,53,287,48,10,58,143,50,15,18,040,47,16,30,200,46,1*6E
$GPGSV,2,2,07,18,49,078,47,21,26,081,42,27,78,200,50,,,,,1*5E
$GPGSA,A,3,08,10,15,16,18,21,27,,,,,,2.3,1.3,1.9,1*21
$GPGSV,2,1,07,08,53,287,48,10,58,143,50,15,18,040,47,16,30,200,46,1*6E
$GPGSV,2,2,07,18,49,078,47,21,26,081,42,27,78,200,50,,,,,1*5E
$GPRMC,164223.00,A,5746.8266471,N,01246.2822829,E,4.74,186.53,040716,0.0,E,D*3A
$GPGGA,164223.00,5746.8266471,N,01246.2822829,E,5,07,1.0,193.552,M,35.049,M,0.8,*4A
$GPGSA,A,3,08,10,15,16,18,21,27,,,,,,2.3,1.3,1.9,1*21
$GPGSV,2,1,07,08,53,287,47,10,58,143,50,15,18,040,47,16,30,200,45,1*62
$GPGSV,2,2,07,18,49,078,46,21,26,081,43,27,78,200,49,,,,,1*56
$GPRMC,164223.10,A,5746.8265138,N,01246.2823536,E,12.25,156.25,040716,0.0,E,D*0D
$GPGGA,164223.10,5746.8265138,N,01246.2823536,E,5,07,1.0,193.555,M,35.049,M,0.9,*44
$GPGSA,A,3,08,10,15,16,18,21,27,,,,,,2.3,1.3,1.9,1*21
$GPGSV,2,1,07,08,53,287,47,10,58,143,50,15,18,040,47,16,30,200,45,1*62
$GPGSV,2,2,07,18,49,078,46,21,26,081,43,27,78,200,49,,,,,1*56
$GPRMC,164223.20,A,5746.8263774,N,01246.2824170,E,4.83,269.35,040716,0.0,E,D*32
$GPGGA,164223.20,5746.8263774,N,01246.2824170,E,5,07,1.0,193.549,M,35.049,M,1.0,*4B
$GPRMC,164223.30,A,5746.8262418,N,01246.2824739,E,8.29,153.19,040716,0.0,E,D*38
$GPGGA,164223.30,5746.8262418,N,01246.2824739,E,5,07,1.0,193.553,M,35.049,M,1.1,*43
$GPGSA,A,3,08,10,15,16,18,21,27,,,,,,2.3,1.3,1.9,1*21
$GPGSV,2,1,07,08,53,287,47,10,58,143,50,15,18,040,47,16,30,200,45,1*62
$GPGSV,2,2,07,18,49,078,46,21,26,081,43,27,78,200,49,,,,,1*56
$GPRMC,164223.40,A,5746.8261047,N,01246.2825213,E,7.12,163.33,040716,0.0,E,D*32
$GPGGA,164223.40,5746.8261047,N,01246.2825213,E,5,07,1.0,193.553,M,35.049,M,1.2,*46
$GPGSA,A,3,08,10,15,16,18,21,27,,,,,,2.3,1.3,1.9,1*21
$GPGSV,2,1,07,08,53,287,47,10,58,143,50,15,18,040,47,16,30,200,45,1*62
$GPGSV,2,2,07,18,49,078,46,21,26,081,43,27,78,200,49,,,,,1*56
$GPRMC,164223.50,A,5746.8259647,N,01246.2825602,E,6.47,174.05,040716,0.0,E,D*38
$GPGGA,164223.50,5746.8259647,N,01246.2825602,E,5,07,1.0,193.551,M,35.049,M,1.3,*4D
$GPRMC,164223.60,A,5746.8258268,N,01246.2825892,E,4.77,185.89,040716,0.0,E,D*3F
$GPGGA,164223.60,5746.8258268,N,01246.2825892,E,5,07,1.0,193.552,M,35.049,M,1.4,*45
$GPGSA,A,3,08,10,15,16,18,21,27,,,,,,2.3,1.3,1.9,1*21
$GPGSV,2,1,07,08,53,287,47,10,58,143,50,15,18,040,47,16,30,200,45,1*62
$GPGSV,2,2,07,18,49,078,46,21,26,081,43,27,78,200,49,,,,,1*56
$GPRMC,164223.70,A,5746.8256886,N,01246.2826128,E,8.23,183.01,040716,0.0,E,D*3A
$GPGGA,164223.70,5746.8256886,N,01246.2826128,E,5,07,1.0,193.554,M,35.049,M,1.5,*4C
$GPGSA,A,3,08,10,15,16,18,21,27,,,,,,2.3,1.3,1.9,1*21
$GPGSV,2,1,07,08,53,287,47,10,58,143,50,15,18,040,47,16,30,200,45,1*62
$GPGSV,2,2,07,18,49,078,46,21,26,081,43,27,78,200,49,,,,,1*56
$GPRMC,164223.80,A,5746.8255504,N,01246.2826220,E,6.39,174.02,040716,0.0,E,D*34
$GPGGA,164223.80,5746.8255504,N,01246.2826220,E,5,07,1.0,193.550,M,35.049,M,1.6,*4B
$GPRMC,164223.90,A,5746.8254122,N,01246.2826237,E,7.63,167.83,040716,0.0,E,D*37
$GPGGA,164223.90,5746.8254122,N,01246.2826237,E,5,07,1.0,193.552,M,35.049,M,1.7,*4E
$GPRMC,164224.00,A,5746.8252697,N,01246.2826232,E,4.74,228.89,040716,0.0,E,D*34
$GPGGA,164224.00,5746.8252697,N,01246.2826232,E,5,07,1.0,193.556,M,35.049,M,0.8,*40
$GPRMC,164224.10,A,5746.8251306,N,01246.2826092,E,5.52,199.51,040716,0.0,E,D*3A
$GPGGA,164224.10,5746.8251306,N,01246.2826092,E,5,07,1.0,193.555,M,35.049,M,0.9,*45
$GPGSA,A,3,08,10,15,16,18,21,27,,,,,,2.3,1.3,1.9,1*21
$GPGSV,2,1,07,08,53,287,47,10,58,143,50,15,18,040,45,16,30,200,44,1*61
$GPGSV,2,2,07,18,49,078,46,21,26,081,45,27,78,200,49,,,,,1*50
$GPRMC,164224.20,A,5746.8249935,N,01246.2825858,E,6.19,216.54,040716,0.0,E,D*3A
$GPGGA,164224.20,5746.8249935,N,01246.2825858,E,5,07,1.0,193.550,M,35.049,M,1.0,*45
$GPRMC,164224.30,A,5746.8248501,N,01246.2825597,E,6.41,228.25,040716,0.0,E,D*39
$GPGGA,164224.30,5746.8248501,N,01246.2825597,E,5,07,1.0,193.543,M,35.049,M,1.1,*43
$GPGSA,A,3,08,10,15,16,18,21,27,,,,,,2.3,1.3,1.9,1*21
$GPGSV,2,1,07,08,53,287,47,10,58,143,50,15,18,040,45,16,30,200,44,1*61
$GPGSV,2,2,07,18,49,078,46,21,26,081,45,27,78,200,49,,,,,1*50
$GPRMC,164224.40,A,5746.8247169,N,01246.2825328,E,5.83,208.58,040716,0.0,E,D*3C
$GPGGA,164224.40,5746.8247169,N,01246.2825328,E,5,07,1.0,193.549,M,35.049,M,1.2,*4A
$GPRMC,164224.50,A,5746.8245809,N,01246.2824924,E,11.91,205.28,040716,0.0,E,D*0B
$GPGGA,164224.50,5746.8245809,N,01246.2824924,E,5,07,1.0,193.550,M,35.049,M,1.3,*48
$GPGSA,A,3,08,10,15,16,18,21,27,,,,,,2.3,1.3,1.9,1*21
$GPGSV,2,1,07,08,53,287,47,10,58,143,50,15,18,040,45,16,30,200,44,1*61
$GPGSV,2,2,07,18,49,078,46,21,26,081,45,27,78,200,49,,,,,1*50
$GPRMC,164224.60,A,5746.8244455,N,01246.2824521,E,10.13,178.71,040716,0.0,E,D*0B
$GPGGA,164224.60,5746.8244455,N,01246.2824521,E,5,07,1.0,193.557,M,35.049,M,1.4,*46
$GPRMC,164224.70,A,5746.8243079,N,01246.2824077,E,6.53,227.04,040716,0.0,E,D*39
$GPGGA,164224.70,5746.8243079,N,01246.2824077,E,5,07,1.0,193.560,M,35.049,M,1.5,*49
$GPGSA,A,3,08,10,15,16,18,21,27,,,,,,2.3,1.3,1.9,1*21
$GPGSV,2,1,07,08,53,287,47,10,58,143,50,15,18,040,45,16,30,200,44,1*61
$GPGSV,2,2,07,18,49,078,46,21,26,081,45,27,78,200,49,,,,,1*50
$GPGSA,A,3,08,10,15,16,18,21,27,,,,,,2.3,1.3,1.9,1*21
$GPGSV,2,1,07,08,53,287,47,10,58,143,50,15,18,040,45,16,30,200,44,1*61
$GPGSV,2,2,07,18,49,078,46,21,26,081,45,27,78,200,49,,,,,1*50
$GPRMC,164224.90,A,5746.8240303,N,01246.2823032,E,11.49,161.22,040716,0.0,E,D*04
$GPGGA,164224.90,5746.8240303,N,01246.2823032,E,5,07,1.0,193.559,M,35.049,M,1.7,*44
$GPGSA,A,3,08,10,15,16,18,21,27,,,,,,2.3,1.3,1.9,1*21
$GPGSV,2,1,07,08,53,287,47,10,58,143,50,15,18,040,45,16,30,200,44,1*61
$GPGSV,2,2,07,18,49,078,46,21,26,081,45,27,78,200,49,,,,,1*50
$GPRMC,164225.00,A,5746.8238961,N,01246.2822472,E,8.51,216.81,040716,0.0,E,D*37
$GPGGA,164225.00,5746.8238961,N,01246.2822472,E,5,07,1.0,193.561,M,35.049,M,1.8,*48
$GPRMC,164225.10,A,5746.8237599,N,01246.2821903,E,8.87,187.19,040716,0.0,E,D*3B
$GPGGA,164225.10,5746.8237599,N,01246.2821903,E,5,07,1.0,193.555,M,35.049,M,1.9,*43
$GPGSA,A,3,08,10,15,16,18,21,27,,,,,,2.3,1.3,1.9,1*21
$GPGSV,2,1,07,08,53,287,47,10,58,143,49,15,18,040,45,16,30,200,42,1*6F
$GPGSV,2,2,07,18,49,078,46,21,26,081,47,27,78,200,50,,,,,1*5A
$GPGSA,A,3,08,10,15,16,18,21,27,,,,,,2.3,1.3,1.9,1*21
$GPGSV,2,1,07,08,53,287,47,10,58,143,49,15,18,040,45,16,30,200,42,1*6F
$GPGSV,2,2,07,18,49,078,46,21,26,081,47,27,78,200,50,,,,,1*5A
$GPGSA,A,3,08,10,15,16,18,21,27,,,,,,2.3,1.3,1.9,1*21
$GPGSV,2,1,07,08,53,287,47,10,58,143,49,15,18,040,45,16,30,200,42,1*6F
$GPGSV,2,2,07,18,49,078,46,21,26,081,47,27,78,200,50,,,,,1*5A
$GPRMC,164225.40,A,5746.8233578,N,01246.2819855,E,4.66,216.55,040716,0.0,E,D*3C
$GPGGA,164225.40,5746.8233578,N,01246.2819855,E,5,07,1.0,193.563,M,35.049,M,2.2,*49
$GPGSA,A,3,08,10,15,16,18,21,27,,,,,,2.3,1.3,1.9,1*21
$GPGSV,2,1,07,08,53,287,47,10,58,143,49,15,18,040,45,16,30,200,42,1*6F
$GPGSV,2,2,07,18,49,078,46,21,26,081,47,27,78,200,50,,,,,1*5A
$GPGSA,A,3,08,10,15,16,18,21,27,,,,,,2.3,1.3,1.9,1*21
$GPGSV,2,1,07,08,53,287,47,10,58,143,49,15,18,040,45,16,30,200,42,1*6F
$GPGSV,2,2,07,18,49,078,46,21,26,081,47,27,78,200,50,,,,,1*5A
$GPGSA,A,3,08,10,15,16,18,21,27,,,,,,2.3,1.3,1.9,1*21
$GPGSV,2,1,07,08,53,287,47,10,58,143,49,15,18,040,45,16,30,200,42,1*6F
$GPGSV,2,2,07,18,49,078,46,21,26,081,47,27,78,200,50,,,,,1*5A
$GPGSA,A,3,08,10,15,16,18,21,27,,,,,,2.3,1.3,1.9,1*21
$GPGSV,2,1,07,08,53,287,47,10,58,143,49,15,18,040,45,16,30,200,42,1*6F
$GPGSV,2,2,07,18,49,078,46,21,26,081,47,27,78,200,50,,,,,1*5A
$GPRMC,164226.00,A,5746.8225787,N,01246.2814420,E,7.84,181.88,040716,0.0,E,D*3F
$GPGGA,164226.00,5746.8225787,N,01246.2814420,E,5,07,1.0,193.578,M,35.049,M,2.8,*48
$GPGSA,A,3,08,10,15,16,18,21,27,,,,,,2.3,1.3,1.9,1*21
$GPGSV,2,1,07,08,53,287,48,10,58,143,49,15,18,040,44,16,30,200,41,1*62
$GPGSV,2,2,07,18,49,078,47,21,26,081,46,27,78,200,49,,,,,1*52
$GPGSA,A,3,08,10,15,16,18,21,27,,,,,,2.3,1.3,1.9,1*21
$GPGSV,2,1,07,08,53,287,48,10,58,143,49,15,18,040,44,16,30,200,41,1*62
$GPGSV,2,2,07,18,49,078,47,21,26,081,46,27,78,200,49,,,,,1*52
$GPRMC,164226.20,A,5746.8223348,N,01246.2811984,E,8.27,188.83,040716,0.0,E,D*3E
$GPGGA,164226.20,5746.8223348,N,01246.2811984,E,5,07,1.0,193.578,M,35.049,M,3.0,*44
$GPGSA,A,3,08,10,15,16,18,21,27,,,,,,2.3,1.3,1.9,1*21
$GPGSV,2,1,07,08,53,287,48,10,58,143,49,15,18,040,44,16,30,200,41,1*62
$GPGSV,2,2,07,18,49,078,47,21,26,081,46,27,78,200,49,,,,,1*52
$GPGSA,A,3,08,10,15,16,18,21,27,,,,,,2.3,1.3,1.9,1*21
$GPGSV,2,1,07,08,53,287,48,10,58,143,49,15,18,040,44,16,30,200,41,1*62
$GPGSV,2,2,07,18,49,078,47,21,26,081,46,27,78,200,49,,,,,1*52
$GPRMC,164226.40,A,5746.8220991,N,01246.2809225,E,8.70,178.11,040716,0.0,E,D*3A
$GPGGA,164226.40,5746.8220991,N,01246.2809225,E,5,07,1.0,193.579,M,35.049,M,3.2,*45
$GPGSA,A,3,08,10,15,16,18,21,27,,,,,,2.3,1.3,1.9,1*21
$GPGSV,2,1,07,08,53,287,48,10,58,143,49,15,18,040,44,16,30,200,41,1*62
$GPGSV,2,2,07,18,49,078,47,21,26,081,46,27,78,200,49,,,,,1*52
$GPGSA,A,3,08,10,15,16,18,21,27,,,,,,2.3,1.3,1.9,1*21
$GPGSV,2,1,07,08,53,287,48,10,58,143,49,15,18,040,44,16,30,200,41,1*62
$GPGSV,2,2,07,18,49,078,47,21,26,081,46,27,78,200,49,,,,,1*52
$GPRMC,164226.60,A,5746.8218762,N,01246.2806151,E,6.64,231.44,040716,0.0,E,D*3B
$GPGGA,164226.60,5746.8218762,N,01246.2806151,E,5,07,1.0,193.584,M,35.049,M,3.4,*45
$GPRMC,164226.70,A,5746.8217691,N,01246.2804474,E,8.16,267.50,040716,0.0,E,D*35
$GPGGA,164226.70,5746.8217691,N,01246.2804474,E,5,07,1.0,193.585,M,35.049,M,3.5,*46
$GPRMC,164226.80,A,5746.8216629,N,01246.2802738,E,8.31,254.17,040716,0.0,E,D*33
$GPGGA,164226.80,5746.8216629,N,01246.2802738,E,5,07,1.0,193.589,M,35.049,M,3.6,*49
$GPGSA,A,3,08,10,15,16,18,21,27,,,,,,2.3,1.3,1.9,1*21
$GPGSV,2,1,07,08,53,287,48,10,58,143,49,15,18,040,44,16,30,200,41,1*62
$GPGSV,2,2,07,18,49,078,47,21,26,081,46,27,78,200,49,,,,,1*52
$GPRMC,164226.90,A,5746.8215624,N,01246.2800960,E,6.70,229.00,040716,0.0,E,D*3A
$GPGGA,164226.90,5746.8215624,N,01246.2800960,E,5,07,1.0,193.591,M,35.049,M,3.7,*4F
$GPRMC,164227.00,A,5746.8214634,N,01246.2799082,E,5.36,210.35,040716,0.0,E,D*35
$GPGGA,164227.00,5746.8214634,N,01246.2799082,E,5,07,1.0,193.590,M,35.049,M,0.8,*40
$GPGSA,A,3,08,10,15,16,18,21,27,,,,,,2.3,1.3,1.9,1*21
$GPGSV,2,1,07,08,53,287,48,10,58,143,49,15,18,040,44,16,30,200,43,1*60
$GPGSV,2,2,07,18,49,078,48,21,26,081,45,27,78,200,49,,,,,1*5E
$GPRMC,164227.10,A,5746.8213719,N,01246.2797181,E,7.39,251.28,040716,0.0,E,D*35
$GPGGA,164227.10,5746.8213719,N,01246.2797181,E,5,07,1.0,193.601,M,35.049,M,0.9,*4E
$GPGSA,A,3,08,10,15,16,18,21,27,,,,,,2.3,1.3,1.9,1*21
$GPGSV,2,1,07,08,53,287,48,10,58,143,49,15,18,040,44,16,30,200,43,1*60
$GPGSV,2,2,07,18,49,078,48,21,26,081,45,27,78,200,49,,,,,1*5E
$GPRMC,164227.20,A,5746.8212819,N,01246.2795221,E,6.93,274.39,040716,0.0,E,D*35
$GPGGA,164227.20,5746.8212819,N,01246.2795221,E,5,07,1.0,193.605,M,35.049,M,1.0,*44
$GPGSA,A,3,08,10,15,16,18,21,27,,,,,,2.3,1.3,1.9,1*21
$GPGSV,2,1,07,08,53,287,48,10,58,143,49,15,18,040,44,16,30,200,43,1*60
$GPGSV,2,2,07,18,49,078,48,21,26,081,45,27,78,200,49,,,,,1*5E
$GPRMC,164227.30,A,5746.8211925,N,01246.2793222,E,3.77,223.07,040716,0.0,E,D*3C
$GPGGA,164227.30,5746.8211925,N,01246.2793222,E,5,07,1.0,193.607,M,35.049,M,1.1,*4E
$GPGSA,A,3,08,10,15,16,18,21,27,,,,,,2.3,1.3,1.9,1*21
$GPGSV,2,1,07,08,53,287,48,10,58,143,49,15,18,040,44,16,30,200,43,1*60
$GPGSV,2,2,07,18,49,078,48,21,26,081,45,27,78,200,49,,,,,1*5E
$GPRMC,164227.40,A,5746.8211066,N,01246.2791160,E,5.12,205.45,040716,0.0,E,D*35
$GPGGA,164227.40,5746.8211066,N,01246.2791160,E,5,07,1.0,193.611,M,35.049,M,1.2,*44
$GPGSA,A,3,08,10,15,16,18,21,27,,,,,,2.3,1.3,1.9,1*21
$GPGSV,2,1,07,08,53,287,48,10,58,143,49,15,18,040,44,16,30,200,43,1*60
$GPGSV,2,2,07,18,49,078,48,21,26,081,45,27,78,200,49,,,,,1*5E
$GPRMC,164227.50,A,5746.8210215,N,01246.2789097,E,6.79,269.11,040716,0.0,E,D*36
$GPGGA,164227.50,5746.8210215,N,01246.2789097,E,5,07,1.0,193.612,M,35.049,M,1.3,*40
$GPRMC,164227.60,A,5746.8209414,N,01246.2786987,E,5.51,225.26,040716,0.0,E,D*38
$GPGGA,164227.60,5746.8209414,N,01246.2786987,E,5,07,1.0,193.613,M,35.049,M,1.4,*4D
$GPGSA,A,3,08,10,15,16,18,21,27,,,,,,2.3,1.3,1.9,1*21
$GPGSV,2,1,07,08,53,287,48,10,58,143,49,15,18,040,44,16,30,200,43,1*60
$GPGSV,2,2,07,18,49,078,48,21,26,081,45,27,78,200,49,,,,,1*5E
$GPRMC,164227.70,A,5746.8208634,N,01246.2784837,E,9.50,269.79,040716,0.0,E,D*3F
$GPGGA,164227.70,5746.8208634,N,01246.2784837,E,5,07,1.0,193.613,M,35.049,M,1.5,*44
$GPGSA,A,3,08,10,15,16,18,21,27,,,,,,2.3,1.3,1.9,1*21
$GPGSV,2,1,07,08,53,287,48,10,58,143,49,15,18,040,44,16,30,200,43,1*60
$GPGSV,2,2,07,18,49,078,48,21,26,081,45,27,78,200,49,,,,,1*5E
$GPRMC,164227.80,A,5746.8207849,N,01246.2782667,E,5.73,249.41,040716,0.0,E,D*32
$GPGGA,164227.80,5746.8207849,N,01246.2782667,E,5,07,1.0,193.617,M,35.049,M,1.6,*4A
$GPGSA,A,3,08,10,15,16,18,21,27,,,,,,2.3,1.3,1.9,1*21
$GPGSV,2,1,07,08,53,287,48,10,58,143,49,15,18,040,44,16,30,200,43,1*60
$GPGSV,2,2,07,18,49,078,48,21,26,081,45,27,78,200,49,,,,,1*5E
$GPGSA,A,3,08,10,15,16,18,21,27,,,,,,2.3,1.3,1.9,1*21
$GPGSV,2,1,07,08,53,287,48,10,58,143,49,15,18,040,44,16,30,200,43,1*60
$GPGSV,2,2,07,18,49,078,48,21,26,081,45,27,78,200,49,,,,,1*5E
$GPRMC,164228.00,A,5746.8206364,N,01246.2778239,E,7.12,254.66,040716,0.0,E,D*36
$GPGGA,164228.00,5746.8206364,N,01246.2778239,E,5,07,1.0,193.619,M,35.049,M,0.8,*43
$GPGSA,A,3,08,10,15,16,18,21,27,,,,,,2.3,1.3,1.9,1*21
$GPGSV,2,1,07,08,53,287,48,10,58,143,48,15,18,040,42,16,30,200,44,1*60
$GPGSV,2,2,07,18,49,078,48,21,26,081,45,27,78,200,49,,,,,1*5E
$GPRMC,164228.10,A,5746.8205622,N,01246.2776023,E,6.99,221.45,040716,0.0,E,D*35
$GPGGA,164228.10,5746.8205622,N,01246.2776023,E,5,07,1.0,193.621,M,35.049,M,0.9,*4B
$GPGSA,A,3,08,10,15,16,18,21,27,,,,,,2.3,1.3,1.9,1*21
$GPGSV,2,1,07,08,53,287,48,10,58,143,48,15,18,040,42,16,30,200,44,1*60
$GPGSV,2,2,07,18,49,078,48,21,26,081,45,27,78,200,49,,,,,1*5E
$GPRMC,164228.20,A,5746.8204944,N,01246.2773788,E,6.06,213.50,040716,0.0,E,D*38
$GPGGA,164228.20,5746.8204944,N,01246.2773788,E,5,07,1.0,193.624,M,35.049,M,1.0,*48
$GPRMC,164228.30,A,5746.8204287,N,01246.2771503,E,10.19,257.77,040716,0.0,E,D*02
$GPGGA,164228.30,5746.8204287,N,01246.2771503,E,5,07,1.0,193.629,M,35.049,M,1.1,*42
$GPGSA,A,3,08,10,15,16,18,21,27,,,,,,2.3,1.3,1.9,1*21
$GPGSV,2,1,07,08,53,287,48,10,58,143,48,15,18,040,42,16,30,200,44,1*60
$GPGSV,2,2,07,18,49,078,48,21,26,081,45,27,78,200,49,,,,,1*5E
$GPRMC,164228.40,A,5746.8203614,N,01246.2769187,E,6.21,270.26,040716,0.0,E,D*30
$GPGGA,164228.40,5746.8203614,N,01246.2769187,E,5,07,1.0,193.640,M,35.049,M,1.2,*41
$GPGSA,A,3,08,10,15,16,18,21,27,,,,,,2.3,1.3,1.9,1*21
$GPGSV,2,1,07,08,53,287,48,10,58,143,48,15,18,040,42,16,30,200,44,1*60
$GPGSV,2,2,07,18,49,078,48,21,26,081,45,27,78,200,49,,,,,1*5E
$GPRMC,164228.50,A,5746.8202964,N,01246.2766890,E,8.55,225.11,040716,0.0,E,D*31
$GPGGA,164228.50,5746.8202964,N,01246.2766890,E,5,07,1.0,193.642,M,35.049,M,1.3,*4A
$GPGSA,A,3,08,10,15,16,18,21,27,,,,,,2.3,1.3,1.9,1*21
$GPGSV,2,1,07,08,53,287,48,10,58,143,48,15,18,040,42,16,30,200,44,1*60
$GPGSV,2,2,07,18,49,078,48,21,26,081,45,27,78,200,49,,,,,1*5E
$GPRMC,164228.60,A,5746.8202315,N,01246.2764609,E,6.92,279.23,040716,0.0,E,D*3F
$GPGGA,164228.60,5746.8202315,N,01246.2764609,E,5,07,1.0,193.636,M,35.049,M,1.4,*4D
$GPGSA,A,3,08,10,15,16,18,21,27,,,,,,2.3,1.3,1.9,1*21
$GPGSV,2,1,07,08,53,287,48,10,58,143,48,15,18,040,42,16,30,200,44,1*60
$GPGSV,2,2,07,18,49,078,48,21,26,081,45,27,78,200,49,,,,,1*5E
$GPRMC,164228.70,A,5746.8201705,N,01246.2762243,E,4.81,232.66,040716,0.0,E,D*3A
$GPGGA,164228.70,5746.8201705,N,01246.2762243,E,5,07,1.0,193.636,M,35.049,M,1.5,*47
$GPRMC,164228.80,A,5746.8201136,N,01246.2759862,E,6.82,263.87,040716,0.0,E,D*38
$GPGGA,164228.80,5746.8201136,N,01246.2759862,E,5,07,1.0,193.635,M,35.049,M,1.6,*4F
$GPRMC,164228.90,A,5746.8200593,N,01246.2757505,E,5.22,233.92,040716,0.0,E,D*39
$GPGGA,164228.90,5746.8200593,N,01246.2757505,E,5,07,1.0,193.641,M,35.049,M,0.7,*45
$GPRMC,164229.00,A,5746.8200101,N,01246.2755112,E,4.87,233.31,040716,0.0,E,D*39
$GPGGA,164229.00,5746.8200101,N,01246.2755112,E,5,07,1.0,193.644,M,35.049,M,0.8,*48
$GPRMC,164229.10,A,5746.8199652,N,01246.2752623,E,4.35,216.59,040716,0.0,E,D*38
$GPGGA,164229.10,5746.8199652,N,01246.2752623,E,5,07,1.0,193.652,M,35.049,M,0.9,*4F
$GPGSA,A,3,08,10,15,16,18,21,27,,,,,,2.3,1.3,1.9,1*21
$GPGSV,2,1,07,08,53,287,48,10,58,143,49,15,18,040,43,16,30,200,44,1*60
$GPGSV,2,2,07,18,49,078,48,21,26,081,44,27,78,200,49,,,,,1*5F
$GPRMC,164229.20,A,5746.8199237,N,01246.2750165,E,7.28,210.55,040716,0.0,E,D*3E
$GPGGA,164229.20,5746.8199237,N,01246.2750165,E,5,07,1.0,193.656,M,35.049,M,1.0,*40
$GPRMC,164229.30,A,5746.8198869,N,01246.2747643,E,6.23,241.93,040716,0.0,E,D*3E
$GPGGA,164229.30,5746.8198869,N,01246.2747643,E,5,07,1.0,193.656,M,35.049,M,1.1,*45
$GPGSA,A,3,08,10,15,16,18,21,27,,,,,,2.3,1.3,1.9,1*21
$GPGSV,2,1,07,08,53,287,48,10,58,143,49,15,18,040,43,16,30,200,44,1*60
$GPGSV,2,2,07,18,49,078,48,21,26,081,44,27,78,200,49,,,,,1*5F
$GPRMC,164229.50,A,5746.8198285,N,01246.2742535,E,6.30,257.65,040716,0.0,E,D*3B
$GPGGA,164229.50,5746.8198285,N,01246.2742535,E,5,07,1.0,193.661,M,35.049,M,1.3,*4A
$GPGSA,A,3,08,10,15,16,18,21,27,,,,,,2.3,1.3,1.9,1*21
$GPGSV,2,1,07,08,53,287,48,10,58,143,49,15,18,040,43,16,30,200,44,1*60
$GPGSV,2,2,07,18,49,078,48,21,26,081,44,27,78,200,49,,,,,1*5F
$GPGSA,A,3,08,10,15,16,18,21,27,,,,,,2.3,1.3,1.9,1*21
$GPGSV,2,1,07,08,53,287,48,10,58,143,49,15,18,040,43,16,30,200,44,1*60
$GPGSV,2,2,07,18,49,078,48,21,26,081,44,27,78,200,49,,,,,1*5F
$GPRMC,164229.70,A,5746.8197840,N,01246.2737407,E,3.76,230.60,040716,0.0,E,D*34
$GPGGA,164229.70,5746.8197840,N,01246.2737407,E,5,07,1.0,193.668,M,35.049,M,1.5,*49
$GPGSA,A,3,08,10,15,16,18,21,27,,,,,,2.3,1.3,1.9,1*21
$GPGSV,2,1,07,08,53,287,48,10,58,143,49,15,18,040,43,16,30,200,44,1*60
$GPGSV,2,2,07,18,49,078,48,21,26,081,44,27,78,200,49,,,,,1*5F
$GPRMC,164229.80,A,5746.8197727,N,01246.2734821,E,6.66,275.28,040716,0.0,E,D*37
$GPGGA,164229.80,5746.8197727,N,01246.2734821,E,5,07,1.0,193.665,M,35.049,M,1.6,*4D
$GPGSA,A,3,08,10,15,16,18,21,27,,,,,,2.3,1.3,1.9,1*21
$GPGSV,2,1,07,08,53,287,48,10,58,143,49,15,18,040,43,16,30,200,44,1*60
$GPGSV,2,2,07,18,49,078,48,21,26,081,44,27,78,200,49,,,,,1*5F
$GPGSA,A,3,08,10,15,16,18,21,27,,,,,,2.3,1.3,1.9,1*21
$GPGSV,2,1,07,08,53,287,48,10,58,143,49,15,18,040,43,16,30,200,44,1*60
$GPGSV,2,2,07,18,49,078,48,21,26,081,44,27,78,200,49,,,,,1*5F
$GPRMC,164230.00,A,5746.8197637,N,01246.2729605,E,2.41,289.44,040716,0.0,E,D*3B
$GPGGA,164230.00,5746.8197637,N,01246.2729605,E,5,07,1.0,193.674,M,35.049,M,1.8,*47
$GPRMC,164230.10,A,5746.8197637,N,01246.2727021,E,7.59,228.60,040716,0.0,E,D*35
$GPGGA,164230.10,5746.8197637,N,01246.2727021,E,5,07,1.0,193.673,M,35.049,M,1.9,*4E
$GPGSA,A,3,08,10,15,16,18,21,27,,,,,,2.3,1.3,1.9,1*21
$GPGSV,2,1,07,08,53,287,48,10,58,143,49,15,18,040,43,16,30,200,44,1*60
$GPGSV,2,2,07,18,49,078,48,21,26,081,44,27,78,200,50,,,,,1*57
$GPRMC,164230.20,A,5746.8197702,N,01246.2724397,E,2.57,219.76,040716,0.0,E,D*32
$GPGGA,164230.20,5746.8197702,N,01246.2724397,E,5,07,1.0,193.675,M,35.049,M,2.0,*4B
$GPRMC,164230.40,A,5746.8197953,N,01246.2719237,E,4.00,261.46,040716,0.0,E,D*33
$GPGGA,164230.40,5746.8197953,N,01246.2719237,E,5,07,1.0,193.690,M,35.049,M,2.2,*4B
$GPGSA,A,3,08,10,15,16,18,21,27,,,,,,2.3,1.3,1.9,1*21
$GPGSV,2,1,07,08,53,287,48,10,58,143,49,15,18,040,43,16,30,200,44,1*60
$GPGSV,2,2,07,18,49,078,48,21,26,081,44,27,78,200,50,,,,,1*57
$GPRMC,164230.50,A,5746.8198150,N,01246.2716714,E,3.19,312.24,040716,0.0,E,D*33
$GPGGA,164230.50,5746.8198150,N,01246.2716714,E,5,07,1.0,193.697,M,35.049,M,2.3,*43
$GPRMC,164230.60,A,5746.8198379,N,01246.2714132,E,5.52,237.41,040716,0.0,E,D*35
$GPGGA,164230.60,5746.8198379,N,01246.2714132,E,5,07,1.0,193.705,M,35.049,M,2.4,*44
$GPGSA,A,3,08,10,15,16,18,21,27,,,,,,2.3,1.3,1.9,1*21
$GPGSV,2,1,07,08,53,287,48,10,58,143,49,15,18,040,43,16,30,200,44,1*60
$GPGSV,2,2,07,18,49,078,48,21,26,081,44,27,78,200,50,,,,,1*57
$GPGSA,A,3,08,10,15,16,18,21,27,,,,,,2.3,1.3,1.9,1*21
$GPGSV,2,1,07,08,53,287,48,10,58,143,49,15,18,040,43,16,30,200,44,1*60
$GPGSV,2,2,07,18,49,078,48,21,26,081,44,27,78,200,50,,,,,1*57
$GPRMC,164230.80,A,5746.8198938,N,01246.2708981,E,11.35,298.70,040716,0.0,E,D*0A
$GPGGA,164230.80,5746.8198938,N,01246.2708981,E,5,07,1.0,193.706,M,35.049,M,2.6,*49
$GPGSA,A,3,08,10,15,16,18,21,27,,,,,,2.3,1.3,1.9,1*21
$GPGSV,2,1,07,08,53,287,48,10,58,143,49,15,18,040,43,16,30,200,44,1*60
$GPGSV,2,2,07,18,49,078,48,21,26,081,44,27,78,200,50,,,,,1*57
$GPRMC,164230.90,A,5746.8199197,N,01246.2706428,E,6.25,292.91,040716,0.0,E,D*35
$GPGGA,164230.90,5746.8199197,N,01246.2706428,E,5,07,1.0,193.701,M,35.049,M,2.7,*42
$GPRMC,164231.00,A,5746.8199540,N,01246.2703899,E,11.00,279.40,040716,0.0,E,D*08
$GPGGA,164231.00,5746.8199540,N,01246.2703899,E,5,07,1.0,193.711,M,35.049,M,0.8,*4B
$GPGSA,A,3,08,10,15,16,18,21,27,,,,,,2.3,1.3,1.9,1*21
$GPGSV,2,1,07,08,53,287,49,10,58,143,49,15,18,040,43,16,30,200,44,1*61
$GPGSV,2,2,07,18,49,078,47,21,26,081,44,27,78,200,50,,,,,1*58
$GPRMC,164231.10,A,5746.8199913,N,01246.2701358,E,6.96,302.04,040716,0.0,E,D*33
$GPGGA,164231.10,5746.8199913,N,01246.2701358,E,5,07,1.0,193.717,M,35.049,M,0.9,*43
$GPRMC,164231.20,A,5746.8200278,N,01246.2698860,E,3.08,281.84,040716,0.0,E,D*34
$GPGGA,164231.20,5746.8200278,N,01246.2698860,E,5,07,1.0,193.722,M,35.049,M,1.0,*4A
$GPGSA,A,3,08,10,15,16,18,21,27,,,,,,2.3,1.3,1.9,1*21
$GPGSV,2,1,07,08,53,287,49,10,58,143,49,15,18,040,43,16,30,200,44,1*61
$GPGSV,2,2,07,18,49,078,47,21,26,081,44,27,78,200,50,,,,,1*58
$GPRMC,164231.30,A,5746.8200669,N,01246.2696400,E,5.91,288.95,040716,0.0,E,D*3A
$GPGGA,164231.30,5746.8200669,N,01246.2696400,E,5,07,1.0,193.730,M,35.049,M,1.1,*49
$GPGSA,A,3,08,10,15,16,18,21,27,,,,,,2.3,1.3,1.9,1*21
$GPGSV,2,1,07,08,53,287,49,10,58,143,49,15,18,040,43,16,30,200,44,1*61
$GPGSV,2,2,07,18,49,078,47,21,26,081,44,27,78,200,50,,,,,1*58
$GPRMC,164231.40,A,5746.8201045,N,01246.2693853,E,7.81,303.30,040716,0.0,E,D*35
$GPGGA,164231.40,5746.8201045,N,01246.2693853,E,5,07,1.0,193.731,M,35.049,M,1.2,*4A
$GPGSA,A,3,08,10,15,16,18,21,27,,,,,,2.3,1.3,1.9,1*21
$GPGSV,2,1,07,08,53,287,49,10,58,143,49,15,18,040,43,16,30,200,44,1*61
$GPGSV,2,2,07,18,49,078,47,21,26,081,44,27,78,200,50,,,,,1*58
$GPRMC,164231.50,A,5746.8201466,N,01246.2691367,E,8.51,285.91,040716,0.0,E,D*39
$GPGGA,164231.50,5746.8201466,N,01246.2691367,E,5,07,1.0,193.728,M,35.049,M,1.3,*49
$GPGSA,A,3,08,10,15,16,18,21,27,,,,,,2.3,1.3,1.9,1*21
$GPGSV,2,1,07,08,53,287,49,10,58,143,49,15,18,040,43,16,30,200,44,1*61
$GPGSV,2,2,07,18,49,078,47,21,26,081,44,27,78,200,50,,,,,1*58
$GPRMC,164231.60,A,5746.8201888,N,01246.2688958,E,7.22,291.94,040716,0.0,E,D*33
$GPGGA,164231.60,5746.8201888,N,01246.2688958,E,5,07,1.0,193.732,M,35.049,M,1.4,*44
$GPGSA,A,3,08,10,15,16,18,21,27,,,,,,2.3,1.3,1.9,1*21
$GPGSV,2,1,07,08,53,287,49,10,58,143,49,15,18,040,43,16,30,200,44,1*61
$GPGSV,2,2,07,18,49,078,47,21,26,081,44,27,78,200,50,,,,,1*58
$GPRMC,164231.70,A,5746.8202343,N,01246.2686468,E,5.70,283.71,040716,0.0,E,D*30
$GPGGA,164231.70,5746.8202343,N,01246.2686468,E,5,07,1.0,193.734,M,35.049,M,1.5,*4D
$GPRMC,164231.80,A,5746.8202833,N,01246.2684025,E,10.93,310.19,040716,0.0,E,D*00
$GPGGA,164231.80,5746.8202833,N,01246.2684025,E,5,07,1.0,193.730,M,35.049,M,1.6,*46
$GPGSA,A,3,08,10,15,16,18,21,27,,,,,,2.3,1.3,1.9,1*21
$GPGSV,2,1,07,08,53,287,49,10,58,143,49,15,18,040,43,16,30,200,44,1*61
$GPGSV,2,2,07,18,49,078,47,21,26,081,44,27,78,200,50,,,,,1*58
$GPRMC,164231.90,A,5746.8203355,N,01246.2681629,E,5.63,270.01,040716,0.0,E,D*31
$GPGGA,164231.90,5746.8203355,N,01246.2681629,E,5,07,1.0,193.735,M,35.049,M,1.7,*46
$GPGSA,A,3,08,10,15,16,18,21,27,,,,,,2.3,1.3,1.9,1*21
$GPGSV,2,1,07,08,53,287,49,10,58,143,49,15,18,040,43,16,30,200,44,1*61
$GPGSV,2,2,07,18,49,078,47,21,26,081,44,27,78,200,50,,,,,1*58
$GPRMC,164232.00,A,5746.8203859,N,01246.2679275,E,8.21,297.18,040716,0.0,E,D*3C
$GPGGA,164232.00,5746.8203859,N,01246.2679275,E,5,07,1.0,193.740,M,35.049,M,0.8,*4D
$GPRMC,164232.10,A,5746.8204444,N,01246.2676861,E,4.85,290.80,040716,0.0,E,D*3E
$GPGGA,164232.10,5746.8204444,N,01246.2676861,E,5,07,1.0,193.744,M,35.049,M,0.9,*4E
$GPGSA,A,3,08,10,15,16,18,21,27,,,,,,2.3,1.3,1.9,1*21
$GPGSV,2,1,07,08,53,287,49,10,58,143,49,15,18,040,44,16,30,200,45,1*67
$GPGSV,2,2,07,18,49,078,47,21,26,081,44,27,78,200,49,,,,,1*50
$GPRMC,164232.20,A,5746.8205062,N,01246.2674516,E,7.10,276.79,040716,0.0,E,D*32
$GPGGA,164232.20,5746.8205062,N,01246.2674516,E,5,07,1.0,193.745,M,35.049,M,1.0,*4A
$GPGSA,A,3,08,10,15,16,18,21,27,,,,,,2.3,1.3,1.9,1*21
$GPGSV,2,1,07,08,53,287,49,10,58,143,49,15,18,040,44,16,30,200,45,1*67
$GPGSV,2,2,07,18,49,078,47,21,26,081,44,27,78,200,49,,,,,1*50
$GPGSA,A,3,08,10,15,16,18,21,27,,,,,,2.3,1.3,1.9,1*21
$GPGSV,2,1,07,08,53,287,49,10,58,143,49,15,18,040,44,16,30,200,45,1*67
$GPGSV,2,2,07,18,49,078,47,21,26,081,44,27,78,200,49,,,,,1*50
$GPRMC,164232.40,A,5746.8206368,N,01246.2670025,E,3.68,300.46,040716,0.0,E,D*38
$GPGGA,164232.40,5746.8206368,N,01246.2670025,E,5,07,1.0,193.746,M,35.049,M,1.2,*46
$GPRMC,164232.50,A,5746.8207110,N,01246.2667851,E,11.47,300.94,040716,0.0,E,D*09
$GPGGA,164232.50,5746.8207110,N,01246.2667851,E,5,07,1.0,193.752,M,35.049,M,1.3,*42
$GPGSA,A,3,08,10,15,16,18,21,27,,,,,,2.3,1.3,1.9,1*21
$GPGSV,2,1,07,08,53,287,49,10,58,143,49,15,18,040,44,16,30,200,45,1*67
$GPGSV,2,2,07,18,49,078,47,21,26,081,44,27,78,200,49,,,,,1*50
$GPRMC,164232.60,A,5746.8207887,N,01246.2665642,E,6.92,300.64,040716,0.0,E,D*32
$GPGGA,164232.60,5746.8207887,N,01246.2665642,E,5,07,1.0,193.751,M,35.049,M,1.4,*4C
$GPGSA,A,3,08,10,15,16,18,21,27,,,,,,2.3,1.3,1.9,1*21
$GPGSV,2,1,07,08,53,287,49,10,58,143,49,15,18,040,44,16,30,200,45,1*67
$GPGSV,2,2,07,18,49,078,47,21,26,081,44,27,78,200,49,,,,,1*50
$GPGSA,A,3,08,10,15,16,18,21,27,,,,,,2.3,1.3,1.9,1*21
$GPGSV,2,1,07,08,53,287,49,10,58,143,49,15,18,040,44,16,30,200,45,1*67
$GPGSV,2,2,07,18,49,078,47,21,26,081,44,27,78,200,49,,,,,1*50
$GPRMC,164232.80,A,5746.8209553,N,01246.2661438,E,6.48,309.29,040716,0.0,E,D*3A
$GPGGA,164232.80,5746.8209553,N,01246.2661438,E,5,07,1.0,193.754,M,35.049,M,1.6,*44
$GPGSA,A,3,08,10,15,16,18,21,27,,,,,,2.3,1.3,1.9,1*21
$GPGSV,2,1,07,08,53,287,49,10,58,143,49,15,18,040,44,16,30,200,45,1*67
$GPGSV,2,2,07,18,49,078,47,21,26,081,44,27,78,200,49,,,,,1*50
$GPRMC,164233.00,A,5746.8211414,N,01246.2657544,E,4.28,302.54,040716,0.0,E,D*32
$GPGGA,164233.00,5746.8211414,N,01246.2657544,E,5,07,1.0,193.756,M,35.049,M,0.8,*44
$GPRMC,164233.10,A,5746.8212388,N,01246.2655611,E,4.45,310.23,040716,0.0,E,D*3B
$GPGGA,164233.10,5746.8212388,N,01246.2655611,E,5,07,1.0,193.758,M,35.049,M,0.9,*4A
$GPGSA,A,3,08,10,15,16,18,21,27,,,,,,2.3,1.3,1.9,1*21
$GPGSV,2,1,07,08,53,287,48,10,58,143,50,15,18,040,45,16,30,200,47,1*6D
$GPGSV,2,2,07,18,49,078,46,21,26,081,44,27,78,200,49,,,,,1*51
$GPRMC,164233.20,A,5746.8213366,N,01246.2653757,E,7.69,319.51,040716,0.0,E,D*3D
$GPGGA,164233.20,5746.8213366,N,01246.2653757,E,5,07,1.0,193.755,M,35.049,M,1.0,*48
$GPGSA,A,3,08,10,15,16,18,21,27,,,,,,2.3,1.3,1.9,1*21
$GPGSV,2,1,07,08,53,287,48,10,58,143,50,15,18,040,45,16,30,200,47,1*6D
$GPGSV,2,2,07,18,49,078,46,21,26,081,44,27,78,200,49,,,,,1*51
$GPRMC,164233.30,A,5746.8214373,N,01246.2652070,E,2.43,278.68,040716,0.0,E,D*3D
$GPGGA,164233.30,5746.8214373,N,01246.2652070,E,5,07,1.0,193.756,M,35.049,M,1.1,*4B
$GPGSA,A,3,08,10,15,16,18,21,27,,,,,,2.3,1.3,1.9,1*21
$GPGSV,2,1,07,08,53,287,48,10,58,143,50,15,18,040,45,16,30,200,47,1*6D
$GPGSV,2,2,07,18,49,078,46,21,26,081,44,27,78,200,49,,,,,1*51
$GPGSA,A,3,08,10,15,16,18,21,27,,,,,,2.3,1.3,1.9,1*21
$GPGSV,2,1,07,08,53,287,48,10,58,143,50,15,18,040,45,16,30,200,47,1*6D
$GPGSV,2,2,07,18,49,078,46,21,26,081,44,27,78,200,49,,,,,1*51
$GPGSA,A,3,08,10,15,16,18,21,27,,,,,,2.3,1.3,1.9,1*21
$GPGSV,2,1,07,08,53,287,48,10,58,143,50,15,18,040,45,16,30,200,47,1*6D
$GPGSV,2,2,07,18,49,078,46,21,26,081,44,27,78,200,49,,,,,1*51
$GPRMC,164233.60,A,5746.8217636,N,01246.2647233,E,10.87,324.36,040716,0.0,E,D*06
$GPGGA,164233.60,5746.8217636,N,01246.2647233,E,5,07,1.0,193.759,M,35.049,M,1.4,*42
$GPGSA,A,3,08,10,15,16,18,21,27,,,,,,2.3,1.3,1.9,1*21
$GPGSV,2,1,07,08,53,287,48,10,58,143,50,15,18,040,45,16,30,200,47,1*6D
$GPGSV,2,2,07,18,49,078,46,21,26,081,44,27,78,200,49,,,,,1*51
$GPRMC,164233.70,A,5746.8218775,N,01246.2645746,E,8.74,325.69,040716,0.0,E,D*35
$GPGGA,164233.70,5746.8218775,N,01246.2645746,E,5,07,1.0,193.758,M,35.049,M,1.5,*4F
$GPRMC,164233.80,A,5746.8219934,N,01246.2644320,E,4.37,12.38,040716,0.0,E,D*0D
$GPGGA,164233.80,5746.8219934,N,01246.2644320,E,5,07,1.0,193.760,M,35.049,M,1.6,*47
$GPGSA,A,3,08,10,15,16,18,21,27,,,,,,2.3,1.3,1.9,1*21
$GPGSV,2,1,07,08,53,287,48,10,58,143,50,15,18,040,45,16,30,200,47,1*6D
$GPGSV,2,2,07,18,49,078,46,21,26,081,44,27,78,200,49,,,,,1*51
$GPGSA,A,3,08,10,15,16,18,21,27,,,,,,2.3,1.3,1.9,1*21
$GPGSV,2,1,07,08,53,287,48,10,58,143,50,15,18,040,45,16,30,200,47,1*6D
$GPGSV,2,2,07,18,49,078,46,21,26,081,44,27,78,200,49,,,,,1*51
$GPGSA,A,3,08,10,15,16,18,21,27,,,,,,2.3,1.3,1.9,1*21
$GPGSV,2,1,07,08,53,287,48,10,58,143,50,15,18,040,46,16,30,200,47,1*6E
$GPGSV,2,2,07,18,49,078,45,21,26,081,44,27,78,200,49,,,,,1*52
$GPGSA,A,3,08,10,15,16,18,21,27,,,,,,2.3,1.3,1.9,1*21
$GPGSV,2,1,07,08,53,287,48,10,58,143,50,15,18,040,46,16,30,200,47,1*6E
$GPGSV,2,2,07,18,49,078,45,21,26,081,44,27,78,200,49,,,,,1*52
$GPGSA,A,3,08,10,15,16,18,21,27,,,,,,2.3,1.3,1.9,1*21
$GPGSV,2,1,07,08,53,287,48,10,58,143,50,15,18,040,46,16,30,200,47,1*6E
$GPGSV,2,2,07,18,49,078,45,21,26,081,44,27,78,200,49,,,,,1*52
$GPGSA,A,3,08,10,15,16,18,21,27,,,,,,2.3,1.3,1.9,1*21
$GPGSV,2,1,07,08,53,287,48,10,58,143,50,15,18,040,46,16,30,200,47,1*6E
$GPGSV,2,2,07,18,49,078,45,21,26,081,44,27,78,200,49,,,,,1*52
$GPGSA,A,3,08,10,15,16,18,21,27,,,,,,2.3,1.3,1.9,1*21
$GPGSV,2,1,07,08,53,287,48,10,58,143,50,15,18,040,46,16,30,200,47,1*6E
$GPGSV,2,2,07,18,49,078,45,21,26,081,44,27,78,200,49,,,,,1*52
$GPGSA,A,3,08,10,15,16,18,21,27,,,,,,2.3,1.3,1.9,1*21
$GPGSV,2,1,07,08,53,287,48,10,58,143,50,15,18,040,46,16,30,200,47,1*6E
$GPGSV,2,2,07,18,49,078,45,21,26,081,44,27,78,200,49,,,,,1*52
$GPRMC,164234.70,A,5746.8231078,N,01246.2633538,E,4.18,348.32,040716,0.0,E,D*3A
$GPGGA,164234.70,5746.8231078,N,01246.2633538,E,5,07,1.0,193.780,M,35.049,M,1.5,*46
$GPRMC,164234.80,A,5746.8232305,N,01246.2632481,E,5.02,323.70,040716,0.0,E,D*3C
$GPGGA,164234.80,5746.8232305,N,01246.2632481,E,5,07,1.0,193.769,M,35.049,M,1.6,*45
$GPRMC,164234.90,A,5746.8233592,N,01246.2631436,E,8.73,344.86,040716,0.0,E,D*38
$GPGGA,164234.90,5746.8233592,N,01246.2631436,E,5,07,1.0,193.764,M,35.049,M,0.7,*4F
$GPRMC,164235.00,A,5746.8234859,N,01246.2630521,E,7.98,340.90,040716,0.0,E,D*32
$GPGGA,164235.00,5746.8234859,N,01246.2630521,E,5,07,1.0,193.757,M,35.049,M,0.8,*43
$GPRMC,164235.10,A,5746.8236146,N,01246.2629567,E,5.74,357.09,040716,0.0,E,D*3A
$GPGGA,164235.10,5746.8236146,N,01246.2629567,E,5,07,1.0,193.753,M,35.049,M,0.9,*48
$GPRMC,164235.20,A,5746.8237453,N,01246.2628678,E,10.11,307.33,040716,0.0,E,D*0E
$GPGGA,164235.20,5746.8237453,N,01246.2628678,E,5,07,1.0,193.751,M,35.049,M,1.0,*4D
$GPGSA,A,3,08,10,15,16,18,21,27,,,,,,2.3,1.3,1.9,1*21
$GPGSV,2,1,07,08,53,287,48,10,58,143,49,15,18,040,46,16,30,200,45,1*64
$GPGSV,2,2,07,18,49,078,46,21,26,081,44,27,78,200,49,,,,,1*51
$GPRMC,164235.30,A,5746.8238746,N,01246.2627814,E,9.79,333.99,040716,0.0,E,D*3D
$GPGGA,164235.30,5746.8238746,N,01246.2627814,E,5,07,1.0,193.742,M,35.049,M,1.1,*4C
$GPGSA,A,3,08,10,15,16,18,21,27,,,,,,2.3,1.3,1.9,1*21
$GPGSV,2,1,07,08,53,287,48,10,58,143,49,15,18,040,46,16,30,200,45,1*64
$GPGSV,2,2,07,18,49,078,46,21,26,081,44,27,78,200,49,,,,,1*51
$GPRMC,164235.40,A,5746.8240047,N,01246.2627066,E,3.70,69.24,040716,0.0,E,D*07
$GPGGA,164235.40,5746.8240047,N,01246.2627066,E,5,07,1.0,193.733,M,35.049,M,1.2,*4A
$GPGSA,A,3,08,10,15,16,18,21,27,,,,,,2.3,1.3,1.9,1*21
$GPGSV,2,1,07,08,53,287,48,10,58,143,49,15,18,040,46,16,30,200,45,1*64
$GPGSV,2,2,07,18,49,078,46,21,26,081,44,27,78,200,49,,,,,1*51
$GPRMC,164235.50,A,5746.8241414,N,01246.2626369,E,4.72,0.57,040716,0.0,E,D*36
$GPGGA,164235.50,5746.8241414,N,01246.2626369,E,5,07,1.0,193.738,M,35.049,M,1.3,*4F
$GPGSA,A,3,08,10,15,16,18,21,27,,,,,,2.3,1.3,1.9,1*21
$GPGSV,2,1,07,08,53,287,48,10,58,143,49,15,18,040,46,16,30,200,45,1*64
$GPGSV,2,2,07,18,49,078,46,21,26,081,44,27,78,200,49,,,,,1*51
$GPRMC,164235.60,A,5746.8242773,N,01246.2625792,E,3.78,22.66,040716,0.0,E,D*08
$GPGGA,164235.60,5746.8242773,N,01246.2625792,E,5,07,1.0,193.739,M,35.049,M,1.4,*48
$GPGSA,A,3,08,10,15,16,18,21,27,,,,,,2.3,1.3,1.9,1*21
$GPGSV,2,1,07,08,53,287,48,10,58,143,49,15,18,040,46,16,30,200,45,1*64
$GPGSV,2,2,07,18,49,078,46,21,26,081,44,27,78,200,49,,,,,1*51
$GPRMC,164235.70,A,5746.8244147,N,01246.2625297,E,4.00,2.14,040716,0.0,E,D*31
$GPGGA,164235.70,5746.8244147,N,01246.2625297,E,5,07,1.0,193.743,M,35.049,M,1.5,*42
$GPGSA,A,3,08,10,15,16,18,21,27,,,,,,2.3,1.3,1.9,1*21
$GPGSV,2,1,07,08,53,287,48,10,58,143,49,15,18,040,46,16,30,200,45,1*64
$GPGSV,2,2,07,18,49,078,46,21,26,081,44,27,78,200,49,,,,,1*51
$GPRMC,164235.80,A,5746.8245534,N,01246.2624900,E,8.03,343.67,040716,0.0,E,D*36
$GPGGA,164235.80,5746.8245534,N,01246.2624900,E,5,07,1.0,193.746,M,35.049,M,1.6,*4E
$GPGSA,A,3,08,10,15,16,18,21,27,,,,,,2.3,1.3,1.9,1*21
$GPGSV,2,1,07,08,53,287,48,10,58,143,49,15,18,040,46,16,30,200,45,1*64
$GPGSV,2,2,07,18,49,078,46,21,26,081,44,27,78,200,49,,,,,1*51
$GPRMC,164235.90,A,5746.8246921,N,01246.2624573,E,5.77,346.40,040716,0.0,E,D*3A
$GPGGA,164235.90,5746.8246921,N,01246.2624573,E,5,07,1.0,193.748,M,35.049,M,1.7,*43
$GPRMC,164236.00,A,5746.8248299,N,01246.2624342,E,6.78,6.11,040716,0.0,E,D*3D
$GPGGA,164236.00,5746.8248299,N,01246.2624342,E,5,07,1.0,193.746,M,35.049,M,1.8,*4A
$GPRMC,164236.10,A,5746.8249686,N,01246.2624245,E,12.60,352.40,040716,0.0,E,D*0B
$GPGGA,164236.10,5746.8249686,N,01246.2624245,E,5,07,1.0,193.751,M,35.049,M,1.9,*41
$GPGSA,A,3,08,10,15,16,18,21,27,,,,,,2.3,1.3,1.9,1*21
$GPGSV,2,1,07,08,53,287,48,10,58,143,49,15,18,040,45,16,30,200,45,1*67
$GPGSV,2,2,07,18,49,078,46,21,26,081,44,27,78,200,48,,,,,1*50
$GPRMC,164236.20,A,5746.8251072,N,01246.2624138,E,5.38,5.34,040716,0.0,E,D*3C
$GPGGA,164236.20,5746.8251072,N,01246.2624138,E,5,07,1.0,193.743,M,35.049,M,2.0,*46
$GPRMC,164236.30,A,5746.8252449,N,01246.2624160,E,7.45,350.82,040716,0.0,E,D*39
$GPGGA,164236.30,5746.8252449,N,01246.2624160,E,5,07,1.0,193.743,M,35.049,M,2.1,*44
$GPGSA,A,3,08,10,15,16,18,21,27,,,,,,2.3,1.3,1.9,1*21
$GPGSV,2,1,07,08,53,287,48,10,58,143,49,15,18,040,45,16,30,200,45,1*67
$GPGSV,2,2,07,18,49,078,46,21,26,081,44,27,78,200,48,,,,,1*50
$GPRMC,164236.40,A,5746.8253825,N,01246.2624319,E,6.28,14.89,040716,0.0,E,D*07
$GPGGA,164236.40,5746.8253825,N,01246.2624319,E,5,07,1.0,193.741,M,35.049,M,2.2,*49
$GPRMC,164236.50,A,5746.8255235,N,01246.2624562,E,3.27,29.66,040716,0.0,E,D*04
$GPGGA,164236.50,5746.8255235,N,01246.2624562,E,5,07,1.0,193.743,M,35.049,M,2.3,*4C
$GPGSA,A,3,08,10,15,16,18,21,27,,,,,,2.3,1.3,1.9,1*21
$GPGSV,2,1,07,08,53,287,48,10,58,143,49,15,18,040,45,16,30,200,45,1*67
$GPGSV,2,2,07,18,49,078,46,21,26,081,44,27,78,200,48,,,,,1*50
$GPRMC,164236.60,A,5746.8256631,N,01246.2624869,E,9.42,44.61,040716,0.0,E,D*07
$GPGGA,164236.60,5746.8256631,N,01246.2624869,E,5,07,1.0,193.741,M,35.049,M,2.4,*4F
$GPRMC,164236.70,A,5746.8257942,N,01246.2625262,E,8.03,16.97,040716,0.0,E,D*06
$GPGGA,164236.70,5746.8257942,N,01246.2625262,E,5,07,1.0,193.736,M,35.049,M,2.5,*45
$GPGSA,A,3,08,10,15,16,18,21,27,,,,,,2.3,1.3,1.9,1*21
$GPGSV,2,1,07,08,53,287,48,10,58,143,49,15,18,040,45,16,30,200,45,1*67
$GPGSV,2,2,07,18,49,078,46,21,26,081,44,27,78,200,48,,,,,1*50
$GPRMC,164236.80,A,5746.8259336,N,01246.2625727,E,6.78,359.82,040716,0.0,E,D*34
$GPGGA,164236.80,5746.8259336,N,01246.2625727,E,5,07,1.0,193.734,M,35.049,M,2.6,*48
$GPGSA,A,3,08,10,15,16,18,21,27,,,,,,2.3,1.3,1.9,1*21
$GPGSV,2,1,07,08,53,287,48,10,58,143,49,15,18,040,45,16,30,200,45,1*67
$GPGSV,2,2,07,18,49,078,46,21,26,081,44,27,78,200,48,,,,,1*50
$GPGSA,A,3,08,10,15,16,18,21,27,,,,,,2.3,1.3,1.9,1*21
$GPGSV,2,1,07,08,53,287,48,10,58,143,49,15,18,040,45,16,30,200,45,1*67
$GPGSV,2,2,07,18,49,078,46,21,26,081,44,27,78,200,48,,,,,1*50
$GPRMC,164237.00,A,5746.8262043,N,01246.2626875,E,6.93,343.98,040716,0.0,E,D*3A
$GPGGA,164237.00,5746.8262043,N,01246.2626875,E,5,07,1.0,193.725,M,35.049,M,0.8,*4F
$GPRMC,164237.10,A,5746.8263388,N,01246.2627565,E,11.61,94.26,040716,0.0,E,D*34
$GPGGA,164237.10,5746.8263388,N,01246.2627565,E,5,07,1.0,193.728,M,35.049,M,0.9,*4A
$GPGSA,A,3,08,10,15,16,18,21,27,,,,,,2.3,1.3,1.9,1*21
$GPGSV,2,1,07,08,53,287,48,10,58,143,49,15,18,040,44,16,30,200,45,1*66
$GPGSV,2,2,07,18,49,078,47,21,26,081,45,27,78,200,49,,,,,1*51
$GPRMC,164237.20,A,5746.8264699,N,01246.2628315,E,9.20,359.81,040716,0.0,E,D*38
$GPGGA,164237.20,5746.8264699,N,01246.2628315,E,5,07,1.0,193.716,M,35.049,M,1.0,*40
$GPRMC,164237.30,A,5746.8265984,N,01246.2629178,E,11.10,348.63,040716,0.0,E,D*05
$GPGGA,164237.30,5746.8265984,N,01246.2629178,E,5,07,1.0,193.715,M,35.049,M,1.1,*49
$GPGSA,A,3,08,10,15,16,18,21,27,,,,,,2.3,1.3,1.9,1*21
$GPGSV,2,1,07,08,53,287,48,10,58,143,49,15,18,040,44,16,30,200,45,1*66
$GPGSV,2,2,07,18,49,078,47,21,26,081,45,27,78,200,49,,,,,1*51
$GPRMC,164237.40,A,5746.8267309,N,01246.2630065,E,6.05,47.99,040716,0.0,E,D*01
$GPGGA,164237.40,5746.8267309,N,01246.2630065,E,5,07,1.0,193.708,M,35.049,M,1.2,*49
$GPGSA,A,3,08,10,15,16,18,21,27,,,,,,2.3,1.3,1.9,1*21
$GPGSV,2,1,07,08,53,287,48,10,58,143,49,15,18,040,44,16,30,200,45,1*66
$GPGSV,2,2,07,18,49,078,47,21,26,081,45,27,78,200,49,,,,,1*51
$GPGSA,A,3,08,10,15,16,18,21,27,,,,,,2.3,1.3,1.9,1*21
$GPGSV,2,1,07,08,53,287,48,10,58,143,49,15,18,040,44,16,30,200,45,1*66
$GPGSV,2,2,07,18,49,078,47,21,26,081,45,27,78,200,49,,,,,1*51
$GPRMC,164237.60,A,5746.8269933,N,01246.2631885,E,4.13,33.89,040716,0.0,E,D*0E
$GPGGA,164237.60,5746.8269933,N,01246.2631885,E,5,07,1.0,193.706,M,35.049,M,1.4,*49
$GPGSA,A,3,08,10,15,16,18,21,27,,,,,,2.3,1.3,1.9,1*21
$GPGSV,2,1,07,08,53,287,48,10,58,143,49,15,18,040,44,16,30,200,45,1*66
$GPGSV,2,2,07,18,49,078,47,21,26,081,45,27,78,200,49,,,,,1*51
$GPRMC,164237.70,A,5746.8271235,N,01246.2632867,E,6.96,41.39,040716,0.0,E,D*05
$GPGGA,164237.70,5746.8271235,N,01246.2632867,E,5,07,1.0,193.709,M,35.049,M,1.5,*4D
$GPRMC,164237.80,A,5746.8272506,N,01246.2633883,E,6.97,353.75,040716,0.0,E,D*3C
$GPGGA,164237.80,5746.8272506,N,01246.2633883,E,5,07,1.0,193.707,M,35.049,M,1.6,*40
$GPGSA,A,3,08,10,15,16,18,21,27,,,,,,2.3,1.3,1.9,1*21
$GPGSV,2,1,07,08,53,287,48,10,58,143,49,15,18,040,44,16,30,200,45,1*66
$GPGSV,2,2,07,18,49,078,47,21,26,081,45,27,78,200,49,,,,,1*51
$GPGSA,A,3,08,10,15,16,18,21,27,,,,,,2.3,1.3,1.9,1*21
$GPGSV,2,1,07,08,53,287,48,10,58,143,49,15,18,040,44,16,30,200,45,1*66
$GPGSV,2,2,07,18,49,078,47,21,26,081,45,27,78,200,49,,,,,1*51
$GPRMC,164238.00,A,5746.8275076,N,01246.2635966,E,6.61,2.48,040716,0.0,E,D*32
$GPGGA,164238.00,5746.8275076,N,01246.2635966,E,5,07,1.0,193.715,M,35.049,M,0.8,*42
$GPGSA,A,3,08,10,15,16,18,21,27,,,,,,2.3,1.3,1.9,1*21
$GPGSV,2,1,07,08,53,287,47,10,58,143,48,15,18,040,43,16,30,200,45,1*6F
$GPGSV,2,2,07,18,49,078,47,21,26,081,46,27,78,200,49,,,,,1*52
$GPRMC,164238.20,A,5746.8277584,N,01246.2638193,E,5.20,27.56,040716,0.0,E,D*0B
$GPGGA,164238.20,5746.8277584,N,01246.2638193,E,5,07,1.0,193.712,M,35.049,M,1.0,*4B
$GPGSA,A,3,08,10,15,16,18,21,27,,,,,,2.3,1.3,1.9,1*21
$GPGSV,2,1,07,08,53,287,47,10,58,143,48,15,18,040,43,16,30,200,45,1*6F
$GPGSV,2,2,07,18,49,078,47,21,26,081,46,27,78,200,49,,,,,1*52
$GPGSA,A,3,08,10,15,16,18,21,27,,,,,,2.3,1.3,1.9,1*21
$GPGSV,2,1,07,08,53,287,47,10,58,143,48,15,18,040,43,16,30,200,45,1*6F
$GPGSV,2,2,07,18,49,078,47,21,26,081,46,27,78,200,49,,,,,1*52
$GPGSA,A,3,08,10,15,16,18,21,27,,,,,,2.3,1.3,1.9,1*21
$GPGSV,2,1,07,08,53,287,47,10,58,143,48,15,18,040,43,16,30,200,45,1*6F
$GPGSV,2,2,07,18,49,078,47,21,26,081,46,27,78,200,49,,,,,1*52
$GPGSA,A,3,08,10,15,16,18,21,27,,,,,,2.3,1.3,1.9,1*21
$GPGSV,2,1,07,08,53,287,47,10,58,143,48,15,18,040,43,16,30,200,45,1*6F
$GPGSV,2,2,07,18,49,078,47,21,26,081,46,27,78,200,49,,,,,1*52
$GPGSA,A,3,08,10,15,16,18,21,27,,,,,,2.3,1.3,1.9,1*21
$GPGSV,2,1,07,08,53,287,47,10,58,143,48,15,18,040,43,16,30,200,45,1*6F
$GPGSV,2,2,07,18,49,078,47,21,26,081,46,27,78,200,49,,,,,1*52
$GPRMC,164238.80,A,5746.8284810,N,01246.2645991,E,5.70,42.37,040716,0.0,E,D*0C
$GPGGA,164238.80,5746.8284810,N,01246.2645991,E,5,07,1.0,193.711,M,35.049,M,1.6,*48
$GPRMC,164238.90,A,5746.8285929,N,01246.2647565,E,6.28,13.05,040716,0.0,E,D*09
$GPGGA,164238.90,5746.8285929,N,01246.2647565,E,5,07,1.0,193.710,M,35.049,M,1.7,*46
$GPRMC,164239.00,A,5746.8287052,N,01246.2649171,E,7.67,29.47,040716,0.0,E,D*0C
$GPGGA,164239.00,5746.8287052,N,01246.2649171,E,5,07,1.0,193.714,M,35.049,M,0.8,*4C
$GPRMC,164239.10,A,5746.8288115,N,01246.2650881,E,5.65,63.92,040716,0.0,E,D*08
$GPGGA,164239.10,5746.8288115,N,01246.2650881,E,5,07,1.0,193.712,M,35.049,M,0.9,*49
$GPRMC,164239.20,A,5746.8289146,N,01246.2652651,E,5.58,57.89,040716,0.0,E,D*0E
$GPGGA,164239.20,5746.8289146,N,01246.2652651,E,5,07,1.0,193.711,M,35.049,M,1.0,*47
$GPGSA,A,3,08,10,15,16,18,21,27,,,,,,2.3,1.3,1.9,1*21
$GPGSV,2,1,07,08,53,287,47,10,58,143,48,15,18,040,42,16,30,200,45,1*6E
$GPGSV,2,2,07,18,49,078,47,21,26,081,45,27,78,200,49,,,,,1*51
$GPRMC,164239.30,A,5746.8290147,N,01246.2654438,E,8.49,29.36,040716,0.0,E,D*0D
$GPGGA,164239.30,5746.8290147,N,01246.2654438,E,5,07,1.0,193.706,M,35.049,M,1.1,*43
$GPRMC,164239.40,A,5746.8291125,N,01246.2656332,E,5.57,48.35,040716,0.0,E,D*06
$GPGGA,164239.40,5746.8291125,N,01246.2656332,E,5,07,1.0,193.708,M,35.049,M,1.2,*43
$GPGSA,A,3,08,10,15,16,18,21,27,,,,,,2.3,1.3,1.9,1*21
$GPGSV,2,1,07,08,53,287,47,10,58,143,48,15,18,040,42,16,30,200,45,1*6E
$GPGSV,2,2,07,18,49,078,47,21,26,081,45,27,78,200,49,,,,,1*51
$GPGSA,A,3,08,10,15,16,18,21,27,,,,,,2.3,1.3,1.9,1*21
$GPGSV,2,1,07,08,53,287,47,10,58,143,48,15,18,040,42,16,30,200,45,1*6E
$GPGSV,2,2,07,18,49,078,47,21,26,081,45,27,78,200,49,,,,,1*51
$GPRMC,164239.60,A,5746.8292928,N,01246.2660310,E,7.83,30.71,040716,0.0,E,D*03
$GPGGA,164239.60,5746.8292928,N,01246.2660310,E,5,07,1.0,193.700,M,35.049,M,1.4,*4C
$GPGSA,A,3,08,10,15,16,18,21,27,,,,,,2.3,1.3,1.9,1*21
$GPGSV,2,1,07,08,53,287,47,10,58,143,48,15,18,040,42,16,30,200,45,1*6E
$GPGSV,2,2,07,18,49,078,47,21,26,081,45,27,78,200,49,,,,,1*51
$GPRMC,164239.70,A,5746.8293792,N,01246.2662403,E,7.07,59.66,040716,0.0,E,D*0E
$GPGGA,164239.70,5746.8293792,N,01246.2662403,E,5,07,1.0,193.698,M,35.049,M,1.5,*45
$GPGSA,A,3,08,10,15,16,18,21,27,,,,,,2.3,1.3,1.9,1*21
$GPGSV,2,1,07,08,53,287,47,10,58,143,48,15,18,040,42,16,30,200,45,1*6E
$GPGSV,2,2,07,18,49,078,47,21,26,081,45,27,78,200,49,,,,,1*51
$GPRMC,164239.80,A,5746.8294583,N,01246.2664510,E,7.33,45.86,040716,0.0,E,D*05
$GPGGA,164239.80,5746.8294583,N,01246.2664510,E,5,07,1.0,193.699,M,35.049,M,1.6,*48
$GPGSA,A,3,08,10,15,16,18,21,27,,,,,,2.3,1.3,1.9,1*21
$GPGSV,2,1,07,08,53,287,47,10,58,143,48,15,18,040,42,16,30,200,45,1*6E
$GPGSV,2,2,07,18,49,078,47,21,26,081,45,27,78,200,49,,,,,1*51
$GPGSA,A,3,08,10,15,16,18,21,27,,,,,,2.3,1.3,1.9,1*21
$GPGSV,2,1,07,08,53,287,47,10,58,143,48,15,18,040,42,16,30,200,45,1*6E
$GPGSV,2,2,07,18,49,078,47,21,26,081,45,27,78,200,49,,,,,1*51
$GPRMC,164240.00,A,5746.8296109,N,01246.2668847,E,6.07,60.31,040716,0.0,E,D*09
$GPGGA,164240.00,5746.8296109,N,01246.2668847,E,5,07,1.0,193.692,M,35.049,M,0.8,*4D
$GPGSA,A,3,08,10,15,16,18,21,27,,,,,,2.3,1.3,1.9,1*21
$GPGSV,2,1,07,08,53,287,48,10,58,143,49,15,18,040,42,16,30,200,45,1*60
$GPGSV,2,2,07,18,49,078,47,21,26,081,44,27,78,200,49,,,,,1*50
$GPRMC,164240.10,A,5746.8296837,N,01246.2671066,E,5.02,85.25,040716,0.0,E,D*07
$GPGGA,164240.10,5746.8296837,N,01246.2671066,E,5,07,1.0,193.687,M,35.049,M,0.9,*4E
$GPGSA,A,3,08,10,15,16,18,21,27,,,,,,2.3,1.3,1.9,1*21
$GPGSV,2,1,07,08,53,287,48,10,58,143,49,15,18,040,42,16,30,200,45,1*60
$GPGSV,2,2,07,18,49,078,47,21,26,081,44,27,78,200,49,,,,,1*50
$GPRMC,164240.20,A,5746.8297466,N,01246.2673349,E,8.39,102.47,040716,0.0,E,D*3E
$GPGGA,164240.20,5746.8297466,N,01246.2673349,E,5,07,1.0,193.676,M,35.049,M,1.0,*4E
$GPGSA,A,3,08,10,15,16,18,21,27,,,,,,2.3,1.3,1.9,1*21
$GPGSV,2,1,07,08,53,287,48,10,58,143,49,15,18,040,42,16,30,200,45,1*60
$GPGSV,2,2,07,18,49,078,47,21,26,081,44,27,78,200,49,,,,,1*50
$GPGSA,A,3,08,10,15,16,18,21,27,,,,,,2.3,1.3,1.9,1*21
$GPGSV,2,1,07,08,53,287,48,10,58,143,49,15,18,040,42,16,30,200,45,1*60
$GPGSV,2,2,07,18,49,078,47,21,26,081,44,27,78,200,49,,,,,1*50
$GPRMC,164240.40,A,5746.8298689,N,01246.2678021,E,6.21,91.51,040716,0.0,E,D*09
$GPGGA,164240.40,5746.8298689,N,01246.2678021,E,5,07,1.0,193.672,M,35.049,M,1.2,*44
$GPGSA,A,3,08,10,15,16,18,21,27,,,,,,2.3,1.3,1.9,1*21
$GPGSV,2,1,07,08,53,287,48,10,58,143,49,15,18,040,42,16,30,200,45,1*60
$GPGSV,2,2,07,18,49,078,47,21,26,081,44,27,78,200,49,,,,,1*50
$GPGSA,A,3,08,10,15,16,18,21,27,,,,,,2.3,1.3,1.9,1*21
$GPGSV,2,1,07,08,53,287,48,10,58,143,49,15,18,040,42,16,30,200,45,1*60
$GPGSV,2,2,07,18,49,078,47,21,26,081,44,27,78,200,49,,,,,1*50
$GPRMC,164240.60,A,5746.8299833,N,01246.2682799,E,9.14,87.33,040716,0.0,E,D*0E
$GPGGA,164240.60,5746.8299833,N,01246.2682799,E,5,07,1.0,193.673,M,35.049,M,1.4,*4E
$GPGSA,A,3,08,10,15,16,18,21,27,,,,,,2.3,1.3,1.9,1*21
$GPGSV,2,1,07,08,53,287,48,10,58,143,49,15,18,040,42,16,30,200,45,1*60
$GPGSV,2,2,07,18,49,078,47,21,26,081,44,27,78,200,49,,,,,1*50
$GPRMC,164240.70,A,5746.8300384,N,01246.2685199,E,4.91,47.18,040716,0.0,E,D*0D
$GPGGA,164240.70,5746.8300384,N,01246.2685199,E,5,07,1.0,193.671,M,35.049,M,1.5,*4B
$GPGSA,A,3,08,10,15,16,18,21,27,,,,,,2.3,1.3,1.9,1*21
$GPGSV,2,1,07,08,53,287,48,10,58,143,49,15,18,040,42,16,30,200,45,1*60
$GPGSV,2,2,07,18,49,078,47,21,26,081,44,27,78,200,49,,,,,1*50
$GPRMC,164240.80,A,5746.8300917,N,01246.2687613,E,7.92,92.32,040716,0.0,E,D*05
$GPGGA,164240.80,5746.8300917,N,01246.2687613,E,5,07,1.0,193.667,M,35.049,M,1.6,*47
$GPGSA,A,3,08,10,15,16,18,21,27,,,,,,2.3,1.3,1.9,1*21
$GPGSV,2,1,07,08,53,287,48,10,58,143,49,15,18,040,42,16,30,200,45,1*60
$GPGSV,2,2,07,18,49,078,47,21,26,081,44,27,78,200,49,,,,,1*50
$GPGSA,A,3,08,10,15,16,18,21,27,,,,,,2.3,1.3,1.9,1*21
$GPGSV,2,1,07,08,53,287,48,10,58,143,49,15,18,040,42,16,30,200,45,1*60
$GPGSV,2,2,07,18,49,078,47,21,26,081,44,27,78,200,49,,,,,1*50
