$GPGSA,A,3,08,10,11,18,27,,,,,,,,4.4,2.5,3.6,1*28
$GPGSV,2,1,05,08,68,264,49,10,64,104,50,11,29,275,42,18,37,062,47,1*6D
$GPGSV,2,2,05,27,61,164,48,,,,,,,,,,,,,1*5C
$GPRMC,172430.50,A,5746.8269796,N,01246.2701255,E,4.85,287.60,040716,0.0,E,D*3A
$GPGGA,172430.50,5746.8269796,N,01246.2701255,E,5,05,1.0,194.012,M,35.049,M,1.3,*48
$GPGSA,A,3,08,10,11,18,27,,,,,,,,4.4,2.5,3.6,1*28
$GPGSV,2,1,05,08,68,264,49,10,64,104,50,11,29,275,42,18,37,062,47,1*6D
$GPGSV,2,2,05,27,61,164,48,,,,,,,,,,,,,1*5C
$GPGSA,A,3,08,10,11,18,27,,,,,,,,4.4,2.5,3.6,1*28
$GPGSV,2,1,05,08,68,264,49,10,64,104,50,11,29,275,42,18,37,062,47,1*6D
$GPGSV,2,2,05,27,61,164,48,,,,,,,,,,,,,1*5C
$GPRMC,172430.70,A,5746.8270909,N,01246.2697243,E,4.53,285.61,040716,0.0,E,D*39
$GPGGA,172430.70,5746.8270909,N,01246.2697243,E,5,05,1.0,194.025,M,35.049,M,1.5,*41
$GPGSA,A,3,08,10,11,18,27,,,,,,,,4.4,2.5,3.6,1*28
$GPGSV,2,1,05,08,68,264,49,10,64,104,50,11,29,275,42,18,37,062,47,1*6D
$GPGSV,2,2,05,27,61,164,48,,,,,,,,,,,,,1*5C
$GPGSA,A,3,08,10,11,18,27,,,,,,,,4.4,2.5,3.6,1*28
$GPGSV,2,1,05,08,68,264,49,10,64,103,50,11,29,275,42,18,37,062,47,1*6A
$GPGSV,2,2,05,27,61,164,48,,,,,,,,,,,,,1*5C
$GPRMC,172430.90,A,5746.8272059,N,01246.2693211,E,7.06,244.09,040716,0.0,E,D*3A
$GPGGA,172430.90,5746.8272059,N,01246.2693211,E,5,05,1.0,194.042,M,35.049,M,0.7,*40
$GPGSA,A,3,08,10,11,18,27,,,,,,,,4.4,2.5,3.6,1*28
$GPGSV,2,1,05,08,68,264,49,10,64,103,50,11,29,275,42,18,37,062,47,1*6A
$GPGSV,2,2,05,27,61,164,48,,,,,,,,,,,,,1*5C
$GPGSA,A,3,08,10,11,18,27,,,,,,,,4.4,2.5,3.6,1*28
$GPGSV,2,1,05,08,68,264,49,10,64,103,49,11,29,275,43,18,37,062,47,1*63
$GPGSV,2,2,05,27,61,164,48,,,,,,,,,,,,,1*5C
$GPRMC,172431.10,A,5746.8273162,N,01246.2689186,E,31.81,341.14,040716,0.0,E,D*0F
$GPGGA,172431.10,5746.8273162,N,01246.2689186,E,5,05,1.0,194.048,M,35.049,M,0.9,*43
$GPGSA,A,3,08,10,11,18,27,,,,,,,,4.4,2.5,3.6,1*28
$GPGSV,2,1,05,08,68,264,49,10,64,103,49,11,29,275,43,18,37,062,47,1*63
$GPGSV,2,2,05,27,61,164,48,,,,,,,,,,,,,1*5C
$GPGSA,A,3,08,10,11,18,27,,,,,,,,4.4,2.5,3.6,1*28
$GPGSV,2,1,05,08,68,264,49,10,64,103,49,11,29,275,43,18,37,062,47,1*63
$GPGSV,2,2,05,27,61,164,48,,,,,,,,,,,,,1*5C
$GPRMC,172431.30,A,5746.8274313,N,01246.2685246,E,22.92,302.00,040716,0.0,E,D*0F
$GPGGA,172431.30,5746.8274313,N,01246.2685246,E,5,05,1.0,194.056,M,35.049,M,1.1,*47
$GPGSA,A,3,08,10,11,18,27,,,,,,,,4.4,2.5,3.6,1*28
$GPGSV,2,1,05,08,68,264,49,10,64,103,49,11,29,275,43,18,37,062,47,1*63
$GPGSV,2,2,05,27,61,164,48,,,,,,,,,,,,,1*5C
$GPGSA,A,3,08,10,11,18,27,,,,,,,,4.4,2.5,3.6,1*28
$GPGSV,2,1,05,08,68,264,49,10,64,103,49,11,29,275,43,18,37,062,47,1*63
$GPGSV,2,2,05,27,61,164,48,,,,,,,,,,,,,1*5C
$GPGSA,A,3,08,10,11,18,27,,,,,,,,4.4,2.5,3.6,1*28
$GPGSV,2,1,05,08,68,264,49,10,64,103,49,11,29,275,43,18,37,062,47,1*63
$GPGSV,2,2,05,27,61,164,48,,,,,,,,,,,,,1*5C
$GPGSA,A,3,08,10,11,18,27,,,,,,,,4.4,2.5,3.6,1*28
$GPGSV,2,1,05,08,68,264,49,10,64,103,49,11,29,275,43,18,37,062,47,1*63
$GPGSV,2,2,05,27,61,164,48,,,,,,,,,,,,,1*5C
$GPGSA,A,3,08,10,11,18,27,,,,,,,,4.4,2.5,3.6,1*28
$GPGSV,2,1,05,08,68,264,49,10,64,103,49,11,29,275,43,18,37,062,47,1*63
$GPGSV,2,2,05,27,61,164,48,,,,,,,,,,,,,1*5C
$GPRMC,172432.00,A,5746.8278086,N,01246.2671388,E,8.90,253.06,040716,0.0,E,D*3D
$GPGGA,172432.00,5746.8278086,N,01246.2671388,E,5,05,1.0,194.051,M,35.049,M,0.8,*43
$GPGSA,A,3,08,10,11,18,27,,,,,,,,4.4,2.5,3.6,1*28
$GPGSV,2,1,05,08,68,264,49,10,64,103,49,11,29,275,43,18,37,062,47,1*63
$GPGSV,2,2,05,27,61,164,48,,,,,,,,,,,,,1*5C
$GPRMC,172432.10,A,5746.8278602,N,01246.2669413,E,13.90,336.01,040716,0.0,E,D*05
$GPGGA,172432.10,5746.8278602,N,01246.2669413,E,5,05,1.0,194.049,M,35.049,M,0.9,*4C
$GPRMC,172432.20,A,5746.8279140,N,01246.2667427,E,10.84,352.70,040716,0.0,E,D*0D
$GPGGA,172432.20,5746.8279140,N,01246.2667427,E,5,05,1.0,194.058,M,35.049,M,1.0,*4E
$GPGSA,A,3,08,10,11,18,27,,,,,,,,4.4,2.5,3.6,1*28
$GPGSV,2,1,05,08,68,264,49,10,64,103,49,11,29,275,43,18,37,062,47,1*63
$GPGSV,2,2,05,27,61,164,48,,,,,,,,,,,,,1*5C
$GPRMC,172432.30,A,5746.8279654,N,01246.2665481,E,4.27,222.97,040716,0.0,E,D*33
$GPGGA,172432.30,5746.8279654,N,01246.2665481,E,5,05,1.0,194.063,M,35.049,M,1.1,*4A
$GPGSA,A,3,08,10,11,18,27,,,,,,,,4.4,2.5,3.6,1*28
$GPGSV,2,1,05,08,68,264,49,10,64,103,49,11,29,275,43,18,37,062,47,1*63
$GPGSV,2,2,05,27,61,164,48,,,,,,,,,,,,,1*5C
$GPRMC,172432.40,A,5746.8280148,N,01246.2663493,E,14.59,318.25,040716,0.0,E,D*04
$GPGGA,172432.40,5746.8280148,N,01246.2663493,E,5,05,1.0,194.066,M,35.049,M,1.2,*42
$GPGSA,A,3,08,10,11,18,27,,,,,,,,4.4,2.5,3.6,1*28
$GPGSV,2,1,05,08,68,264,49,10,64,103,49,11,29,275,43,18,37,062,47,1*63
$GPGSV,2,2,05,27,61,164,48,,,,,,,,,,,,,1*5C
$GPRMC,172432.50,A,5746.8280650,N,01246.2661522,E,5.25,308.69,040716,0.0,E,D*30
$GPGGA,172432.50,5746.8280650,N,01246.2661522,E,5,05,1.0,194.068,M,35.049,M,1.3,*4B
$GPGSA,A,3,08,10,11,18,27,,,,,,,,4.4,2.5,3.6,1*28
$GPGSV,2,1,05,08,68,264,49,10,64,103,49,11,29,275,43,18,37,062,47,1*63
$GPGSV,2,2,05,27,61,164,48,,,,,,,,,,,,,1*5C
$GPRMC,172432.60,A,5746.8281151,N,01246.2659528,E,6.43,330.53,040716,0.0,E,D*34
$GPGGA,172432.60,5746.8281151,N,01246.2659528,E,5,05,1.0,194.071,M,35.049,M,1.4,*41
$GPGSA,A,3,08,10,11,18,27,,,,,,,,4.4,2.5,3.6,1*28
$GPGSV,2,1,05,08,68,264,49,10,64,103,49,11,29,275,43,18,37,062,47,1*63
$GPGSV,2,2,05,27,61,164,48,,,,,,,,,,,,,1*5C
$GPRMC,172432.70,A,5746.8281625,N,01246.2657575,E,4.85,316.55,040716,0.0,E,D*3D
$GPGGA,172432.70,5746.8281625,N,01246.2657575,E,5,05,1.0,194.069,M,35.049,M,1.5,*4A
$GPGSA,A,3,08,10,11,18,27,,,,,,,,4.4,2.5,3.6,1*28
$GPGSV,2,1,05,08,68,264,49,10,64,103,49,11,29,275,43,18,37,062,47,1*63
$GPGSV,2,2,05,27,61,164,48,,,,,,,,,,,,,1*5C
$GPRMC,172432.80,A,5746.8282133,N,01246.2655633,E,10.62,315.94,040716,0.0,E,D*00
$GPGGA,172432.80,5746.8282133,N,01246.2655633,E,5,05,1.0,194.074,M,35.049,M,1.6,*4A
$GPRMC,172432.90,A,5746.8282597,N,01246.2653671,E,6.11,270.88,040716,0.0,E,D*37
$GPGGA,172432.90,5746.8282597,N,01246.2653671,E,5,05,1.0,194.072,M,35.049,M,0.7,*47
$GPGSA,A,3,08,10,11,18,27,,,,,,,,4.4,2.5,3.6,1*28
$GPGSV,2,1,05,08,68,264,49,10,64,103,49,11,29,275,43,18,37,062,47,1*63
$GPGSV,2,2,05,27,61,164,48,,,,,,,,,,,,,1*5C
$GPRMC,172433.00,A,5746.8283062,N,01246.2651691,E,7.30,204.30,040716,0.0,E,D*3F
$GPGGA,172433.00,5746.8283062,N,01246.2651691,E,5,05,1.0,194.069,M,35.049,M,0.8,*48
$GPGSA,A,3,08,10,11,18,27,,,,,,,,4.4,2.5,3.6,1*28
$GPGSV,2,1,05,08,68,264,49,10,64,103,49,11,29,275,43,18,37,062,47,1*63
$GPGSV,2,2,05,27,61,164,48,,,,,,,,,,,,,1*5C
$GPRMC,172433.10,A,5746.8283510,N,01246.2649743,E,28.57,334.62,040716,0.0,E,D*00
$GPGGA,172433.10,5746.8283510,N,01246.2649743,E,5,05,1.0,194.068,M,35.049,M,0.9,*4E
$GPGSA,A,3,08,10,11,18,27,,,,,,,,4.4,2.5,3.6,1*28
$GPGSV,2,1,05,08,68,264,49,10,64,103,49,11,29,275,43,18,37,062,47,1*63
$GPGSV,2,2,05,27,61,164,48,,,,,,,,,,,,,1*5C
$GPRMC,172433.20,A,5746.8283964,N,01246.2647764,E,5.69,295.79,040716,0.0,E,D*35
$GPGGA,172433.20,5746.8283964,N,01246.2647764,E,5,05,1.0,194.065,M,35.049,M,1.0,*4C
$GPRMC,172433.30,A,5746.8284496,N,01246.2645846,E,6.98,313.46,040716,0.0,E,D*30
$GPGGA,172433.30,5746.8284496,N,01246.2645846,E,5,05,1.0,194.064,M,35.049,M,1.1,*47
$GPGSA,A,3,08,10,11,18,27,,,,,,,,4.4,2.5,3.6,1*28
$GPGSV,2,1,05,08,68,264,49,10,64,103,49,11,29,275,43,18,37,062,47,1*63
$GPGSV,2,2,05,27,61,164,48,,,,,,,,,,,,,1*5C
$GPRMC,172433.40,A,5746.8285048,N,01246.2643939,E,10.81,347.09,040716,0.0,E,D*0B
$GPGGA,172433.40,5746.8285048,N,01246.2643939,E,5,05,1.0,194.068,M,35.049,M,1.2,*46
$GPRMC,172433.50,A,5746.8285638,N,01246.2642117,E,15.36,304.72,040716,0.0,E,D*0C
$GPGGA,172433.50,5746.8285638,N,01246.2642117,E,5,05,1.0,194.078,M,35.049,M,1.3,*43
$GPGSA,A,3,08,10,11,18,27,,,,,,,,4.4,2.5,3.6,1*28
$GPGSV,2,1,05,08,68,264,49,10,64,103,49,11,29,275,43,18,37,062,47,1*63
$GPGSV,2,2,05,27,61,164,48,,,,,,,,,,,,,1*5C
$GPRMC,172433.60,A,5746.8286307,N,01246.2640318,E,1.70,304.72,040716,0.0,E,D*3D
$GPGGA,172433.60,5746.8286307,N,01246.2640318,E,5,05,1.0,194.076,M,35.049,M,1.4,*4C
$GPGSA,A,3,08,10,11,18,27,,,,,,,,4.4,2.5,3.6,1*28
$GPGSV,2,1,05,08,68,264,49,10,64,103,49,11,29,275,43,18,37,062,47,1*63
$GPGSV,2,2,05,27,61,164,48,,,,,,,,,,,,,1*5C
$GPRMC,172433.70,A,5746.8287006,N,01246.2638650,E,13.73,198.16,040716,0.0,E,D*0C
$GPGGA,172433.70,5746.8287006,N,01246.2638650,E,5,05,1.0,194.079,M,35.049,M,1.5,*46
$GPGSA,A,3,08,10,11,18,27,,,,,,,,4.4,2.5,3.6,1*28
$GPGSV,2,1,05,08,68,264,49,10,64,103,49,11,29,275,43,18,37,062,47,1*63
$GPGSV,2,2,05,27,61,164,48,,,,,,,,,,,,,1*5C
$GPRMC,172433.80,A,5746.8287695,N,01246.2636985,E,10.54,209.03,040716,0.0,E,D*0F
$GPGGA,172433.80,5746.8287695,N,01246.2636985,E,5,05,1.0,194.072,M,35.049,M,1.6,*44
$GPGSA,A,3,08,10,11,18,27,,,,,,,,4.4,2.5,3.6,1*28
$GPGSV,2,1,05,08,68,264,49,10,64,103,49,11,29,275,43,18,37,062,47,1*63
$GPGSV,2,2,05,27,61,164,48,,,,,,,,,,,,,1*5C
$GPRMC,172433.90,A,5746.8288453,N,01246.2635505,E,10.87,181.81,040716,0.0,E,D*09
$GPGGA,172433.90,5746.8288453,N,01246.2635505,E,5,05,1.0,194.061,M,35.049,M,0.7,*47
$GPGSA,A,3,08,10,11,18,27,,,,,,,,4.4,2.5,3.6,1*28
$GPGSV,2,1,05,08,68,264,49,10,64,103,49,11,29,275,43,18,37,062,47,1*63
$GPGSV,2,2,05,27,61,164,48,,,,,,,,,,,,,1*5C
$GPRMC,172434.00,A,5746.8289251,N,01246.2634037,E,15.33,199.23,040716,0.0,E,D*0C
$GPGGA,172434.00,5746.8289251,N,01246.2634037,E,5,05,1.0,194.054,M,35.049,M,0.8,*40
$GPGSA,A,3,08,10,11,18,27,,,,,,,,4.4,2.5,3.6,1*28
$GPGSV,2,1,05,08,68,264,49,10,64,103,49,11,29,275,44,18,37,062,47,1*64
$GPGSV,2,2,05,27,61,164,48,,,,,,,,,,,,,1*5C
$GPRMC,172434.10,A,5746.8290103,N,01246.2632688,E,10.01,270.75,040716,0.0,E,D*06
$GPGGA,172434.10,5746.8290103,N,01246.2632688,E,5,05,1.0,194.060,M,35.049,M,0.9,*4F
$GPGSA,A,3,08,10,11,18,27,,,,,,,,4.4,2.5,3.6,1*28
$GPGSV,2,1,05,08,68,264,49,10,64,103,49,11,29,275,44,18,37,062,47,1*64
$GPGSV,2,2,05,27,61,164,48,,,,,,,,,,,,,1*5C
$GPGSA,A,3,08,10,11,18,27,,,,,,,,4.4,2.5,3.6,1*28
$GPGSV,2,1,05,08,68,264,49,10,64,103,49,11,29,275,44,18,37,062,47,1*64
$GPGSV,2,2,05,27,61,164,48,,,,,,,,,,,,,1*5C
$GPRMC,172434.30,A,5746.8291944,N,01246.2630202,E,11.42,358.36,040716,0.0,E,D*00
$GPGGA,172434.30,5746.8291944,N,01246.2630202,E,5,05,1.0,194.060,M,35.049,M,1.1,*4A
$GPGSA,A,3,08,10,11,18,27,,,,,,,,4.4,2.5,3.6,1*28
$GPGSV,2,1,05,08,68,264,49,10,64,103,49,11,29,275,44,18,37,062,47,1*64
$GPGSV,2,2,05,27,61,164,48,,,,,,,,,,,,,1*5C
$GPRMC,172434.40,A,5746.8292884,N,01246.2629106,E,6.83,3.49,040716,0.0,E,D*38
$GPGGA,172434.40,5746.8292884,N,01246.2629106,E,5,05,1.0,194.059,M,35.049,M,1.2,*45
$GPGSA,A,3,08,10,11,18,27,,,,,,,,4.4,2.5,3.6,1*28
$GPGSV,2,1,05,08,68,264,49,10,64,103,49,11,29,275,44,18,37,062,47,1*64
$GPGSV,2,2,05,27,61,164,48,,,,,,,,,,,,,1*5C
$GPRMC,172434.50,A,5746.8293894,N,01246.2628072,E,13.19,6.62,040716,0.0,E,D*01
$GPGGA,172434.50,5746.8293894,N,01246.2628072,E,5,05,1.0,194.067,M,35.049,M,1.3,*4B
$GPGSA,A,3,08,10,11,18,27,,,,,,,,4.4,2.5,3.6,1*28
$GPGSV,2,1,05,08,68,264,49,10,64,103,49,11,29,275,44,18,37,062,47,1*64
$GPGSV,2,2,05,27,61,164,48,,,,,,,,,,,,,1*5C
$GPRMC,172434.60,A,5746.8294916,N,01246.2627225,E,4.75,227.47,040716,0.0,E,D*3B
$GPGGA,172434.60,5746.8294916,N,01246.2627225,E,5,05,1.0,194.066,M,35.049,M,1.4,*4D
$GPRMC,172434.70,A,5746.8295937,N,01246.2626451,E,6.48,339.67,040716,0.0,E,D*3C
$GPGGA,172434.70,5746.8295937,N,01246.2626451,E,5,05,1.0,194.058,M,35.049,M,1.5,*46
$GPGSA,A,3,08,10,11,18,27,,,,,,,,4.4,2.5,3.6,1*28
$GPGSV,2,1,05,08,68,264,49,10,64,103,49,11,29,275,44,18,37,062,47,1*64
$GPGSV,2,2,05,27,61,164,48,,,,,,,,,,,,,1*5C
$GPRMC,172434.80,A,5746.8296996,N,01246.2625717,E,7.75,320.45,040716,0.0,E,D*3E
$GPGGA,172434.80,5746.8296996,N,01246.2625717,E,5,05,1.0,194.066,M,35.049,M,1.6,*4D
$GPRMC,172434.90,A,5746.8298072,N,01246.2625149,E,14.73,323.37,040716,0.0,E,D*0D
$GPGGA,172434.90,5746.8298072,N,01246.2625149,E,5,05,1.0,194.065,M,35.049,M,0.7,*4F
$GPGSA,A,3,08,10,11,18,27,,,,,,,,4.4,2.5,3.6,1*28
$GPGSV,2,1,05,08,68,264,49,10,64,103,49,11,29,275,44,18,37,062,47,1*64
$GPGSV,2,2,05,27,61,164,48,,,,,,,,,,,,,1*5C
$GPRMC,172435.10,A,5746.8300218,N,01246.2624161,E,12.07,49.92,040716,0.0,E,D*34
$GPGGA,172435.10,5746.8300218,N,01246.2624161,E,5,05,1.0,194.062,M,35.049,M,0.9,*4A
$GPGSA,A,3,08,10,11,18,27,,,,,,,,4.4,2.5,3.6,1*28
$GPGSV,2,1,05,08,68,264,49,10,64,103,49,11,29,275,44,18,37,062,47,1*64
$GPGSV,2,2,05,27,61,164,49,,,,,,,,,,,,,1*5D
$GPRMC,172435.20,A,5746.8301325,N,01246.2623739,E,12.35,342.10,040716,0.0,E,D*06
$GPGGA,172435.20,5746.8301325,N,01246.2623739,E,5,05,1.0,194.073,M,35.049,M,1.0,*43
$GPGSA,A,3,08,10,11,18,27,,,,,,,,4.4,2.5,3.6,1*28
$GPGSV,2,1,05,08,68,264,49,10,64,103,49,11,29,275,44,18,37,062,47,1*64
$GPGSV,2,2,05,27,61,164,49,,,,,,,,,,,,,1*5D
$GPGSA,A,3,08,10,11,18,27,,,,,,,,4.4,2.5,3.6,1*28
$GPGSV,2,1,05,08,68,264,49,10,64,103,49,11,29,275,44,18,37,062,47,1*64
$GPGSV,2,2,05,27,61,164,49,,,,,,,,,,,,,1*5D
$GPGSA,A,3,08,10,11,18,27,,,,,,,,4.4,2.5,3.6,1*28
$GPGSV,2,1,05,08,68,264,49,10,64,103,49,11,29,275,44,18,37,062,47,1*64
$GPGSV,2,2,05,27,61,164,49,,,,,,,,,,,,,1*5D
$GPGSA,A,3,08,10,11,18,27,,,,,,,,4.4,2.5,3.6,1*28
$GPGSV,2,1,05,08,68,264,49,10,64,103,49,11,29,275,44,18,37,062,47,1*64
$GPGSV,2,2,05,27,61,164,49,,,,,,,,,,,,,1*5D
$GPGSA,A,3,08,10,11,18,27,,,,,,,,4.4,2.5,3.6,1*28
$GPGSV,2,1,05,08,68,264,49,10,64,103,49,11,29,275,44,18,37,062,47,1*64
$GPGSV,2,2,05,27,61,164,49,,,,,,,,,,,,,1*5D
$GPRMC,172435.90,A,5746.8309028,N,01246.2621997,E,4.54,7.52,040716,0.0,E,D*37
$GPGGA,172435.90,5746.8309028,N,01246.2621997,E,5,05,1.0,194.076,M,35.049,M,1.7,*44
$GPRMC,172436.10,A,5746.8311239,N,01246.2621738,E,12.25,181.66,040716,0.0,E,D*05
$GPGGA,172436.10,5746.8311239,N,01246.2621738,E,5,05,1.0,194.066,M,35.049,M,1.9,*40
$GPRMC,172436.30,A,5746.8313420,N,01246.2621414,E,16.92,178.81,040716,0.0,E,D*01
$GPGGA,172436.30,5746.8313420,N,01246.2621414,E,5,05,1.0,194.065,M,35.049,M,2.1,*4B
$GPGSA,A,3,08,10,11,18,27,,,,,,,,4.4,2.5,3.6,1*28
$GPGSV,2,1,05,08,68,264,49,10,64,103,49,11,29,275,44,18,37,062,48,1*6B
$GPGSV,2,2,05,27,61,164,49,,,,,,,,,,,,,1*5D
$GPGSA,A,3,08,10,11,18,27,,,,,,,,4.4,2.5,3.6,1*28
$GPGSV,2,1,05,08,68,264,49,10,64,103,49,11,29,275,44,18,37,062,48,1*6B
$GPGSV,2,2,05,27,61,164,49,,,,,,,,,,,,,1*5D
$GPRMC,172436.50,A,5746.8315687,N,01246.2621114,E,8.74,48.94,040716,0.0,E,D*0A
$GPGGA,172436.50,5746.8315687,N,01246.2621114,E,5,05,1.0,194.069,M,35.049,M,2.3,*4F
$GPGSA,A,3,08,10,11,18,27,,,,,,,,4.4,2.5,3.6,1*28
$GPGSV,2,1,05,08,68,264,49,10,64,103,49,11,29,275,44,18,37,062,48,1*6B
$GPGSV,2,2,05,27,61,164,49,,,,,,,,,,,,,1*5D
$GPRMC,172436.60,A,5746.8316815,N,01246.2620999,E,14.73,358.29,040716,0.0,E,D*0D
$GPGGA,172436.60,5746.8316815,N,01246.2620999,E,5,05,1.0,194.067,M,35.049,M,2.4,*4F
$GPGSA,A,3,08,10,11,18,27,,,,,,,,4.4,2.5,3.6,1*28
$GPGSV,2,1,05,08,68,264,49,10,64,103,49,11,29,275,44,18,37,062,48,1*6B
$GPGSV,2,2,05,27,61,164,49,,,,,,,,,,,,,1*5D
$GPGSA,A,3,08,10,11,18,27,,,,,,,,4.4,2.5,3.6,1*28
$GPGSV,2,1,05,08,68,264,49,10,64,103,49,11,29,275,44,18,37,062,48,1*6B
$GPGSV,2,2,05,27,61,164,49,,,,,,,,,,,,,1*5D
$GPRMC,172436.80,A,5746.8318978,N,01246.2620687,E,30.42,347.54,040716,0.0,E,D*07
$GPGGA,172436.80,5746.8318978,N,01246.2620687,E,5,05,1.0,194.060,M,35.049,M,2.6,*40
$GPGSA,A,3,08,10,11,18,27,,,,,,,,4.4,2.5,3.6,1*28
$GPGSV,2,1,05,08,68,264,49,10,64,103,49,11,29,275,44,18,37,062,48,1*6B
$GPGSV,2,2,05,27,61,164,49,,,,,,,,,,,,,1*5D
$GPRMC,172437.00,A,5746.8321218,N,01246.2620364,E,9.76,337.06,040716,0.0,E,D*3C
$GPGGA,172437.00,5746.8321218,N,01246.2620364,E,5,05,1.0,194.066,M,35.049,M,2.8,*4E
$GPGSA,A,3,08,10,11,18,27,,,,,,,,4.4,2.5,3.6,1*28
$GPGSV,2,1,05,08,68,264,49,10,64,103,49,11,29,275,45,18,37,062,48,1*6A
$GPGSV,2,2,05,27,61,164,49,,,,,,,,,,,,,1*5D
$GPRMC,172437.20,A,5746.8323438,N,01246.2620044,E,34.74,150.16,040716,0.0,E,D*07
$GPGGA,172437.20,5746.8323438,N,01246.2620044,E,5,05,1.0,194.062,M,35.049,M,3.0,*46
$GPGSA,A,3,08,10,11,18,27,,,,,,,,4.4,2.5,3.6,1*28
$GPGSV,2,1,05,08,68,264,49,10,64,103,49,11,29,275,45,18,37,062,48,1*6A
$GPGSV,2,2,05,27,61,164,49,,,,,,,,,,,,,1*5D
$GPRMC,172437.30,A,5746.8324532,N,01246.2619909,E,9.54,7.49,040716,0.0,E,D*35
$GPGGA,172437.30,5746.8324532,N,01246.2619909,E,5,05,1.0,194.065,M,35.049,M,3.1,*47
$GPRMC,172437.40,A,5746.8325641,N,01246.2619749,E,6.06,346.17,040716,0.0,E,D*3B
$GPGGA,172437.40,5746.8325641,N,01246.2619749,E,5,05,1.0,194.066,M,35.049,M,3.2,*4C
$GPRMC,172437.50,A,5746.8326770,N,01246.2619550,E,14.91,172.00,040716,0.0,E,D*0E
$GPGGA,172437.50,5746.8326770,N,01246.2619550,E,5,05,1.0,194.068,M,35.049,M,3.3,*48
$GPRMC,172437.60,A,5746.8327907,N,01246.2619378,E,2.73,315.07,040716,0.0,E,D*31
$GPGGA,172437.60,5746.8327907,N,01246.2619378,E,5,05,1.0,194.070,M,35.049,M,3.4,*46
$GPGSA,A,3,08,10,11,18,27,,,,,,,,4.4,2.5,3.6,1*28
$GPGSV,2,1,05,08,68,264,49,10,64,103,49,11,29,275,45,18,37,062,48,1*6A
$GPGSV,2,2,05,27,61,164,49,,,,,,,,,,,,,1*5D
$GPRMC,172437.70,A,5746.8329015,N,01246.2619137,E,19.65,333.24,040716,0.0,E,D*05
$GPGGA,172437.70,5746.8329015,N,01246.2619137,E,5,05,1.0,194.069,M,35.049,M,3.5,*43
$GPGSA,A,3,08,10,11,18,27,,,,,,,,4.4,2.5,3.6,1*28
$GPGSV,2,1,05,08,68,264,49,10,64,103,49,11,29,275,45,18,37,062,48,1*6A
$GPGSV,2,2,05,27,61,164,49,,,,,,,,,,,,,1*5D
$GPRMC,172437.80,A,5746.8330109,N,01246.2618982,E,15.08,5.29,040716,0.0,E,D*05
$GPGGA,172437.80,5746.8330109,N,01246.2618982,E,5,05,1.0,194.062,M,35.049,M,3.6,*47
$GPRMC,172437.90,A,5746.8331218,N,01246.2618839,E,13.63,188.93,040716,0.0,E,D*09
$GPGGA,172437.90,5746.8331218,N,01246.2618839,E,5,05,1.0,194.051,M,35.049,M,3.7,*44
$GPRMC,172438.00,A,5746.8332275,N,01246.2618633,E,5.91,354.36,040716,0.0,E,D*35
$GPGGA,172438.00,5746.8332275,N,01246.2618633,E,5,05,1.0,194.049,M,35.049,M,3.8,*48
$GPGSA,A,3,08,10,11,18,27,,,,,,,,4.4,2.5,3.6,1*28
$GPGSV,2,1,05,08,68,264,49,10,64,103,49,11,29,275,45,18,37,062,48,1*6A
$GPGSV,2,2,05,27,61,164,49,,,,,,,,,,,,,1*5D
$GPRMC,172438.10,A,5746.8333394,N,01246.2618423,E,15.47,2.91,040716,0.0,E,D*0F
$GPGGA,172438.10,5746.8333394,N,01246.2618423,E,5,05,1.0,194.046,M,35.049,M,3.9,*4B
$GPGSA,A,3,08,10,11,18,27,,,,,,,,4.4,2.5,3.6,1*28
$GPGSV,2,1,05,08,68,264,49,10,64,103,49,11,29,275,45,18,37,062,48,1*6A
$GPGSV,2,2,05,27,61,164,49,,,,,,,,,,,,,1*5D
$GPRMC,172438.20,A,5746.8334469,N,01246.2618236,E,4.84,352.97,040716,0.0,E,D*33
$GPGGA,172438.20,5746.8334469,N,01246.2618236,E,5,05,1.0,194.047,M,35.049,M,4.0,*47
$GPGSA,A,3,08,10,11,18,27,,,,,,,,4.4,2.5,3.6,1*28
$GPGSV,2,1,05,08,68,264,49,10,64,103,49,11,29,275,45,18,37,062,48,1*6A
$GPGSV,2,2,05,27,61,164,49,,,,,,,,,,,,,1*5D
$GPRMC,172438.30,A,5746.8335576,N,01246.2618019,E,3.69,11.76,040716,0.0,E,D*0C
$GPGGA,172438.30,5746.8335576,N,01246.2618019,E,5,05,1.0,194.046,M,35.049,M,4.1,*47
$GPGSA,A,3,08,10,11,18,27,,,,,,,,4.4,2.5,3.6,1*28
$GPGSV,2,1,05,08,68,264,49,10,64,103,49,11,29,275,45,18,37,062,48,1*6A
$GPGSV,2,2,05,27,61,164,49,,,,,,,,,,,,,1*5D
$GPRMC,172438.40,A,5746.8336698,N,01246.2617800,E,11.85,95.87,040716,0.0,E,D*37
$GPGGA,172438.40,5746.8336698,N,01246.2617800,E,5,05,1.0,194.050,M,35.049,M,4.2,*4B
$GPGSA,A,3,08,10,11,18,27,,,,,,,,4.4,2.5,3.6,1*28
$GPGSV,2,1,05,08,68,264,49,10,64,103,49,11,29,275,45,18,37,062,48,1*6A
$GPGSV,2,2,05,27,61,164,49,,,,,,,,,,,,,1*5D
$GPRMC,172438.60,A,5746.8338946,N,01246.2617369,E,3.62,315.89,040716,0.0,E,D*3C
$GPGGA,172438.60,5746.8338946,N,01246.2617369,E,5,05,1.0,194.048,M,35.049,M,4.4,*40
$GPGSA,A,3,08,10,11,18,27,,,,,,,,4.4,2.5,3.6,1*28
$GPGSV,2,1,05,08,68,264,49,10,64,103,49,11,29,275,45,18,37,062,48,1*6A
$GPGSV,2,2,05,27,61,164,49,,,,,,,,,,,,,1*5D
$GPRMC,172438.70,A,5746.8340038,N,01246.2617131,E,14.54,345.95,040716,0.0,E,D*06
$GPGGA,172438.70,5746.8340038,N,01246.2617131,E,5,05,1.0,194.047,M,35.049,M,4.5,*4F
$GPGSA,A,3,08,10,11,18,27,,,,,,,,4.4,2.5,3.6,1*28
$GPGSV,2,1,05,08,68,264,49,10,64,103,49,11,29,275,45,18,37,062,48,1*6A
$GPGSV,2,2,05,27,61,164,49,,,,,,,,,,,,,1*5D
$GPRMC,172438.80,A,5746.8341126,N,01246.2616912,E,4.94,252.48,040716,0.0,E,D*34
$GPGGA,172438.80,5746.8341126,N,01246.2616912,E,5,05,1.0,194.048,M,35.049,M,4.6,*4B
$GPGSA,A,3,08,10,11,18,27,,,,,,,,4.4,2.5,3.6,1*28
$GPGSV,2,1,05,08,68,264,49,10,64,103,49,11,29,275,45,18,37,062,48,1*6A
$GPGSV,2,2,05,27,61,164,49,,,,,,,,,,,,,1*5D
$GPRMC,172438.90,A,5746.8342242,N,01246.2616664,E,3.90,302.65,040716,0.0,E,D*31
$GPGGA,172438.90,5746.8342242,N,01246.2616664,E,5,05,1.0,194.051,M,35.049,M,4.7,*4F
$GPRMC,172439.00,A,5746.8343338,N,01246.2616429,E,18.76,330.53,040716,0.0,E,D*09
$GPGGA,172439.00,5746.8343338,N,01246.2616429,E,5,05,1.0,194.051,M,35.049,M,4.8,*4E
$GPRMC,172439.10,A,5746.8344484,N,01246.2616214,E,6.16,318.37,040716,0.0,E,D*36
$GPGGA,172439.10,5746.8344484,N,01246.2616214,E,5,05,1.0,194.050,M,35.049,M,4.9,*40
$GPGSA,A,3,08,10,11,18,27,,,,,,,,4.4,2.5,3.6,1*28
$GPGSV,2,1,05,08,68,264,49,10,64,103,49,11,29,275,44,18,37,062,48,1*6B
$GPGSV,2,2,05,27,61,164,49,,,,,,,,,,,,,1*5D
$GPRMC,172439.20,A,5746.8345563,N,01246.2615993,E,8.73,11.01,040716,0.0,E,D*09
$GPGGA,172439.20,5746.8345563,N,01246.2615993,E,5,05,1.0,194.047,M,35.049,M,5.0,*43
$GPGSA,A,3,08,10,11,18,27,,,,,,,,4.4,2.5,3.6,1*28
$GPGSV,2,1,05,08,68,264,49,10,64,103,49,11,29,275,44,18,37,062,48,1*6B
$GPGSV,2,2,05,27,61,164,49,,,,,,,,,,,,,1*5D
$GPRMC,172439.30,A,5746.8346668,N,01246.2615843,E,7.35,345.70,040716,0.0,E,D*36
$GPGGA,172439.30,5746.8346668,N,01246.2615843,E,5,05,1.0,194.050,M,35.049,M,5.1,*42
$GPGSA,A,3,08,10,11,18,27,,,,,,,,4.4,2.5,3.6,1*28
$GPGSV,2,1,05,08,68,264,49,10,64,103,49,11,29,275,44,18,37,062,48,1*6B
$GPGSV,2,2,05,27,61,164,49,,,,,,,,,,,,,1*5D
$GPRMC,172439.40,A,5746.8347767,N,01246.2615747,E,11.26,5.54,040716,0.0,E,D*01
$GPGGA,172439.40,5746.8347767,N,01246.2615747,E,5,05,1.0,194.050,M,35.049,M,5.2,*42
$GPGSA,A,3,08,10,11,18,27,,,,,,,,4.4,2.5,3.6,1*28
$GPGSV,2,1,05,08,68,264,49,10,64,103,49,11,29,275,44,18,37,062,48,1*6B
$GPGSV,2,2,05,27,61,164,49,,,,,,,,,,,,,1*5D
$GPRMC,172439.50,A,5746.8348886,N,01246.2615681,E,21.97,329.58,040716,0.0,E,D*0C
$GPGGA,172439.50,5746.8348886,N,01246.2615681,E,5,05,1.0,194.051,M,35.049,M,5.3,*47
$GPGSA,A,3,08,10,11,18,27,,,,,,,,4.4,2.5,3.6,1*28
$GPGSV,2,1,05,08,68,264,49,10,64,103,49,11,29,275,44,18,37,062,48,1*6B
$GPGSV,2,2,05,27,61,164,49,,,,,,,,,,,,,1*5D
$GPRMC,172439.60,A,5746.8349991,N,01246.2615574,E,20.66,346.70,040716,0.0,E,D*0C
$GPGGA,172439.60,5746.8349991,N,01246.2615574,E,5,05,1.0,194.052,M,35.049,M,5.4,*4F
$GPGSA,A,3,08,10,11,18,27,,,,,,,,4.4,2.5,3.6,1*28
$GPGSV,2,1,05,08,68,264,49,10,64,103,49,11,29,275,44,18,37,062,48,1*6B
$GPGSV,2,2,05,27,61,164,49,,,,,,,,,,,,,1*5D
$GPRMC,172439.70,A,5746.8351109,N,01246.2615506,E,5.74,1.53,040716,0.0,E,D*3D
$GPGGA,172439.70,5746.8351109,N,01246.2615506,E,5,05,1.0,194.052,M,35.049,M,5.5,*4A
$GPRMC,172439.80,A,5746.8352229,N,01246.2615504,E,13.50,100.57,040716,0.0,E,D*07
$GPGGA,172439.80,5746.8352229,N,01246.2615504,E,5,05,1.0,194.052,M,35.049,M,5.6,*46
$GPGSA,A,3,08,10,11,18,27,,,,,,,,4.4,2.5,3.6,1*28
$GPGSV,2,1,05,08,68,264,49,10,64,103,49,11,29,275,44,18,37,062,48,1*6B
$GPGSV,2,2,05,27,61,164,49,,,,,,,,,,,,,1*5D
$GPRMC,172439.90,A,5746.8353294,N,01246.2615491,E,14.01,24.86,040716,0.0,E,D*34
$GPGGA,172439.90,5746.8353294,N,01246.2615491,E,5,05,1.0,194.051,M,35.049,M,5.7,*4F
$GPGSA,A,3,08,10,11,18,27,,,,,,,,4.4,2.5,3.6,1*28
$GPGSV,2,1,05,08,68,264,49,10,64,103,49,11,29,275,44,18,37,062,48,1*6B
$GPGSV,2,2,05,27,61,164,49,,,,,,,,,,,,,1*5D
$GPGSA,A,3,08,10,11,18,27,,,,,,,,4.4,2.5,3.6,1*28
$GPGSV,2,1,05,08,68,264,49,10,64,103,49,11,29,275,44,18,37,062,48,1*6B
$GPGSV,2,2,05,27,61,164,48,,,,,,,,,,,,,1*5C
$GPGSA,A,3,08,10,11,18,27,,,,,,,,4.4,2.5,3.6,1*28
$GPGSV,2,1,05,08,68,264,49,10,64,103,49,11,29,275,44,18,37,062,48,1*6B
$GPGSV,2,2,05,27,61,164,48,,,,,,,,,,,,,1*5C
$GPRMC,172440.20,A,5746.8356643,N,01246.2615794,E,4.51,147.40,040716,0.0,E,D*36
$GPGGA,172440.20,5746.8356643,N,01246.2615794,E,5,05,1.0,194.050,M,35.049,M,1.0,*45
$GPGSA,A,3,08,10,11,18,27,,,,,,,,4.4,2.5,3.6,1*28
$GPGSV,2,1,05,08,68,264,49,10,64,103,49,11,29,275,44,18,37,062,48,1*6B
$GPGSV,2,2,05,27,61,164,48,,,,,,,,,,,,,1*5C
$GPRMC,172440.30,A,5746.8357752,N,01246.2615910,E,23.12,160.71,040716,0.0,E,D*00
$GPGGA,172440.30,5746.8357752,N,01246.2615910,E,5,05,1.0,194.057,M,35.049,M,1.1,*40
$GPGSA,A,3,08,10,11,18,27,,,,,,,,4.4,2.5,3.6,1*28
$GPGSV,2,1,05,08,68,264,49,10,64,103,49,11,29,275,44,18,37,062,48,1*6B
$GPGSV,2,2,05,27,61,164,48,,,,,,,,,,,,,1*5C
$GPRMC,172440.40,A,5746.8358851,N,01246.2616093,E,13.57,3.65,040716,0.0,E,D*06
$GPGGA,172440.40,5746.8358851,N,01246.2616093,E,5,05,1.0,194.056,M,35.049,M,1.2,*47
$GPGSA,A,3,08,10,11,18,27,,,,,,,,4.4,2.5,3.6,1*28
$GPGSV,2,1,05,08,68,264,49,10,64,103,49,11,29,275,44,18,37,062,48,1*6B
$GPGSV,2,2,05,27,61,164,48,,,,,,,,,,,,,1*5C
$GPRMC,172440.50,A,5746.8359960,N,01246.2616336,E,18.18,340.99,040716,0.0,E,D*0E
$GPGGA,172440.50,5746.8359960,N,01246.2616336,E,5,05,1.0,194.056,M,35.049,M,1.3,*49
$GPGSA,A,3,08,10,11,18,27,,,,,,,,4.4,2.5,3.6,1*28
$GPGSV,2,1,05,08,68,264,49,10,64,103,49,11,29,275,44,18,37,062,48,1*6B
$GPGSV,2,2,05,27,61,164,48,,,,,,,,,,,,,1*5C
$GPRMC,172440.60,A,5746.8361019,N,01246.2616631,E,11.76,358.50,040716,0.0,E,D*0E
$GPGGA,172440.60,5746.8361019,N,01246.2616631,E,5,05,1.0,194.047,M,35.049,M,1.4,*43
$GPRMC,172440.70,A,5746.8362100,N,01246.2616962,E,10.83,341.43,040716,0.0,E,D*0D
$GPGGA,172440.70,5746.8362100,N,01246.2616962,E,5,05,1.0,194.040,M,35.049,M,1.5,*47
$GPRMC,172440.80,A,5746.8363238,N,01246.2617320,E,7.85,29.96,040716,0.0,E,D*03
$GPGGA,172440.80,5746.8363238,N,01246.2617320,E,5,05,1.0,194.044,M,35.049,M,1.6,*4B
$GPGSA,A,3,08,10,11,18,27,,,,,,,,4.4,2.5,3.6,1*28
$GPGSV,2,1,05,08,68,264,49,10,64,103,49,11,29,275,44,18,37,062,48,1*6B
$GPGSV,2,2,05,27,61,164,48,,,,,,,,,,,,,1*5C
$GPRMC,172440.90,A,5746.8364454,N,01246.2617763,E,5.08,0.07,040716,0.0,E,D*3E
$GPGGA,172440.90,5746.8364454,N,01246.2617763,E,5,05,1.0,194.038,M,35.049,M,0.7,*49
$GPGSA,A,3,08,10,11,18,27,,,,,,,,4.4,2.5,3.6,1*28
$GPGSV,2,1,05,08,68,264,49,10,64,103,49,11,29,275,44,18,37,062,48,1*6B
$GPGSV,2,2,05,27,61,164,48,,,,,,,,,,,,,1*5C
$GPRMC,172441.00,A,5746.8365787,N,01246.2618257,E,16.76,118.70,040716,0.0,E,D*04
$GPGGA,172441.00,5746.8365787,N,01246.2618257,E,5,05,1.0,194.043,M,35.049,M,0.8,*43
$GPGSA,A,3,08,10,11,18,27,,,,,,,,4.4,2.5,3.6,1*28
$GPGSV,2,1,05,08,68,264,48,10,64,103,49,11,29,275,46,18,37,062,48,1*68
$GPGSV,2,2,05,27,61,164,49,,,,,,,,,,,,,1*5D
$GPRMC,172441.10,A,5746.8367191,N,01246.2618842,E,4.14,341.18,040716,0.0,E,D*3F
$GPGGA,172441.10,5746.8367191,N,01246.2618842,E,5,05,1.0,194.043,M,35.049,M,0.9,*4E
$GPGSA,A,3,08,10,11,18,27,,,,,,,,4.4,2.5,3.6,1*28
$GPGSV,2,1,05,08,68,264,48,10,64,103,49,11,29,275,46,18,37,062,48,1*68
$GPGSV,2,2,05,27,61,164,49,,,,,,,,,,,,,1*5D
$GPRMC,172441.20,A,5746.8368650,N,01246.2619516,E,7.66,25.55,040716,0.0,E,D*0A
$GPGGA,172441.20,5746.8368650,N,01246.2619516,E,5,05,1.0,194.041,M,35.049,M,1.0,*4F
$GPGSA,A,3,08,10,11,18,27,,,,,,,,4.4,2.5,3.6,1*28
$GPGSV,2,1,05,08,68,264,48,10,64,103,49,11,29,275,46,18,37,062,48,1*68
$GPGSV,2,2,05,27,61,164,49,,,,,,,,,,,,,1*5D
$GPRMC,172441.30,A,5746.8370180,N,01246.2620230,E,6.76,140.47,040716,0.0,E,D*30
$GPGGA,172441.30,5746.8370180,N,01246.2620230,E,5,05,1.0,194.041,M,35.049,M,1.1,*45
$GPRMC,172441.40,A,5746.8371673,N,01246.2621081,E,12.93,352.18,040716,0.0,E,D*01
$GPGGA,172441.40,5746.8371673,N,01246.2621081,E,5,05,1.0,194.033,M,35.049,M,1.2,*47
$GPGSA,A,3,08,10,11,18,27,,,,,,,,4.4,2.5,3.6,1*28
$GPGSV,2,1,05,08,68,264,48,10,64,103,49,11,29,275,46,18,37,062,48,1*68
$GPGSV,2,2,05,27,61,164,49,,,,,,,,,,,,,1*5D
$GPRMC,172441.50,A,5746.8373255,N,01246.2621972,E,9.24,156.13,040716,0.0,E,D*3C
$GPGGA,172441.50,5746.8373255,N,01246.2621972,E,5,05,1.0,194.025,M,35.049,M,1.3,*47
$GPRMC,172441.60,A,5746.8374871,N,01246.2622911,E,9.94,62.80,040716,0.0,E,D*05
$GPGGA,172441.60,5746.8374871,N,01246.2622911,E,5,05,1.0,194.022,M,35.049,M,1.4,*49
$GPGSA,A,3,08,10,11,18,27,,,,,,,,4.4,2.5,3.6,1*28
$GPGSV,2,1,05,08,68,264,48,10,64,103,49,11,29,275,46,18,37,062,48,1*68
$GPGSV,2,2,05,27,61,164,49,,,,,,,,,,,,,1*5D
$GPGSA,A,3,08,10,11,18,27,,,,,,,,4.4,2.5,3.6,1*28
$GPGSV,2,1,05,08,68,264,48,10,64,103,49,11,29,275,46,18,37,062,48,1*68
$GPGSV,2,2,05,27,61,164,49,,,,,,,,,,,,,1*5D
$GPRMC,172441.80,A,5746.8378339,N,01246.2624935,E,8.71,27.40,040716,0.0,E,D*07
$GPGGA,172441.80,5746.8378339,N,01246.2624935,E,5,05,1.0,194.019,M,35.049,M,1.6,*46
$GPGSA,A,3,08,10,11,18,27,,,,,,,,4.4,2.5,3.6,1*28
$GPGSV,2,1,05,08,68,264,48,10,64,103,49,11,29,275,46,18,37,062,48,1*68
$GPGSV,2,2,05,27,61,164,49,,,,,,,,,,,,,1*5D
$GPRMC,172441.90,A,5746.8380166,N,01246.2626016,E,22.76,357.71,040716,0.0,E,D*0A
$GPGGA,172441.90,5746.8380166,N,01246.2626016,E,5,05,1.0,194.016,M,35.049,M,1.7,*4C
$GPGSA,A,3,08,10,11,18,27,,,,,,,,4.4,2.5,3.6,1*28
$GPGSV,2,1,05,08,68,264,48,10,64,103,49,11,29,275,46,18,37,062,48,1*68
$GPGSV,2,2,05,27,61,164,49,,,,,,,,,,,,,1*5D
$GPRMC,172442.00,A,5746.8382094,N,01246.2627178,E,7.34,188.86,040716,0.0,E,D*3F
$GPGGA,172442.00,5746.8382094,N,01246.2627178,E,5,05,1.0,194.011,M,35.049,M,1.8,*48
$GPGSA,A,3,08,10,11,18,27,,,,,,,,4.4,2.5,3.6,1*28
$GPGSV,2,1,05,08,68,264,48,10,64,103,50,11,29,275,47,18,37,062,47,1*6E
$GPGSV,2,2,05,27,61,164,49,,,,,,,,,,,,,1*5D
$GPRMC,172442.20,A,5746.8386120,N,01246.2629569,E,5.48,40.53,040716,0.0,E,D*09
$GPGGA,172442.20,5746.8386120,N,01246.2629569,E,5,05,1.0,194.011,M,35.049,M,2.0,*41
$GPGSA,A,3,08,10,11,18,27,,,,,,,,4.4,2.5,3.6,1*28
$GPGSV,2,1,05,08,68,264,48,10,64,103,50,11,29,275,47,18,37,062,47,1*6E
$GPGSV,2,2,05,27,61,164,49,,,,,,,,,,,,,1*5D
$GPRMC,172442.40,A,5746.8390449,N,01246.2632040,E,10.92,354.18,040716,0.0,E,D*0C
$GPGGA,172442.40,5746.8390449,N,01246.2632040,E,5,05,1.0,194.004,M,35.049,M,2.2,*48
$GPGSA,A,3,08,10,11,18,27,,,,,,,,4.4,2.5,3.6,1*28
$GPGSV,2,1,05,08,68,264,48,10,64,103,50,11,29,275,47,18,37,062,47,1*6E
$GPGSV,2,2,05,27,61,164,49,,,,,,,,,,,,,1*5D
$GPRMC,172442.60,A,5746.8395135,N,01246.2634556,E,11.45,20.88,040716,0.0,E,D*33
$GPGGA,172442.60,5746.8395135,N,01246.2634556,E,5,05,1.0,193.999,M,35.049,M,2.4,*49
$GPGSA,A,3,08,10,11,18,27,,,,,,,,4.4,2.5,3.6,1*28
$GPGSV,2,1,05,08,68,264,48,10,64,103,50,11,29,275,47,18,37,062,47,1*6E
$GPGSV,2,2,05,27,61,164,49,,,,,,,,,,,,,1*5D
$GPRMC,172442.70,A,5746.8397655,N,01246.2635812,E,14.07,356.54,040716,0.0,E,D*0D
$GPGGA,172442.70,5746.8397655,N,01246.2635812,E,5,05,1.0,193.993,M,35.049,M,2.5,*4C
$GPRMC,172442.80,A,5746.8400244,N,01246.2637111,E,12.76,1.98,040716,0.0,E,D*06
$GPGGA,172442.80,5746.8400244,N,01246.2637111,E,5,05,1.0,193.987,M,35.049,M,2.6,*40
$GPGSA,A,3,08,10,11,18,27,,,,,,,,4.4,2.5,3.6,1*28
$GPGSV,2,1,05,08,68,264,48,10,64,103,50,11,29,275,47,18,37,062,47,1*6E
$GPGSV,2,2,05,27,61,164,49,,,,,,,,,,,,,1*5D
$GPRMC,172442.90,A,5746.8402956,N,01246.2638412,E,18.86,20.40,040716,0.0,E,D*37
$GPGGA,172442.90,5746.8402956,N,01246.2638412,E,5,05,1.0,193.981,M,35.049,M,0.7,*47
$GPGSA,A,3,08,10,11,18,27,,,,,,,,4.4,2.5,3.6,1*28
$GPGSV,2,1,05,08,68,264,48,10,64,103,50,11,29,275,47,18,37,062,47,1*6E
$GPGSV,2,2,05,27,61,164,49,,,,,,,,,,,,,1*5D
$GPRMC,172443.00,A,5746.8405771,N,01246.2639674,E,6.90,29.05,040716,0.0,E,D*00
$GPGGA,172443.00,5746.8405771,N,01246.2639674,E,5,05,1.0,193.980,M,35.049,M,0.8,*4E
$GPGSA,A,3,08,10,11,18,27,,,,,,,,4.4,2.5,3.6,1*28
$GPGSV,2,1,05,08,68,264,49,10,64,103,50,11,29,275,47,18,37,062,48,1*60
$GPGSV,2,2,05,27,61,164,49,,,,,,,,,,,,,1*5D
$GPGSA,A,3,08,10,11,18,27,,,,,,,,4.4,2.5,3.6,1*28
$GPGSV,2,1,05,08,68,264,49,10,64,103,50,11,29,275,47,18,37,062,48,1*60
$GPGSV,2,2,05,27,61,164,49,,,,,,,,,,,,,1*5D
$GPRMC,172443.20,A,5746.8411740,N,01246.2642336,E,19.16,353.72,040716,0.0,E,D*04
$GPGGA,172443.20,5746.8411740,N,01246.2642336,E,5,05,1.0,193.968,M,35.049,M,1.0,*4B
$GPRMC,172443.30,A,5746.8414982,N,01246.2643670,E,13.43,22.36,040716,0.0,E,D*39
$GPGGA,172443.30,5746.8414982,N,01246.2643670,E,5,05,1.0,193.964,M,35.049,M,1.1,*44
$GPGSA,A,3,08,10,11,18,27,,,,,,,,4.4,2.5,3.6,1*28
$GPGSV,2,1,05,08,68,264,49,10,64,103,50,11,29,275,47,18,37,062,48,1*60
$GPGSV,2,2,05,27,61,164,49,,,,,,,,,,,,,1*5D
$GPRMC,172443.40,A,5746.8418291,N,01246.2645083,E,22.74,1.27,040716,0.0,E,D*00
$GPGGA,172443.40,5746.8418291,N,01246.2645083,E,5,05,1.0,193.966,M,35.049,M,1.2,*4B
$GPGSA,A,3,08,10,11,18,27,,,,,,,,4.4,2.5,3.6,1*28
$GPGSV,2,1,05,08,68,264,49,10,64,103,50,11,29,275,47,18,37,062,48,1*60
$GPGSV,2,2,05,27,61,164,49,,,,,,,,,,,,,1*5D
$GPGSA,A,3,08,10,11,18,27,,,,,,,,4.4,2.5,3.6,1*28
$GPGSV,2,1,05,08,68,264,49,10,64,103,50,11,29,275,47,18,37,062,48,1*60
$GPGSV,2,2,05,27,61,164,49,,,,,,,,,,,,,1*5D
$GPRMC,172443.60,A,5746.8425182,N,01246.2648096,E,13.79,19.44,040716,0.0,E,D*37
$GPGGA,172443.60,5746.8425182,N,01246.2648096,E,5,05,1.0,193.955,M,35.049,M,1.4,*49
$GPRMC,172443.70,A,5746.8428834,N,01246.2649740,E,23.01,4.84,040716,0.0,E,D*0E
$GPGGA,172443.70,5746.8428834,N,01246.2649740,E,5,05,1.0,193.953,M,35.049,M,1.5,*4B
$GPGSA,A,3,08,10,11,18,27,,,,,,,,4.4,2.5,3.6,1*28
$GPGSV,2,1,05,08,68,264,49,10,64,103,50,11,29,275,47,18,37,062,48,1*60
$GPGSV,2,2,05,27,61,164,49,,,,,,,,,,,,,1*5D
$GPRMC,172443.80,A,5746.8432643,N,01246.2651585,E,24.70,359.87,040716,0.0,E,D*0F
$GPGGA,172443.80,5746.8432643,N,01246.2651585,E,5,05,1.0,193.951,M,35.049,M,1.6,*42
$GPGSA,A,3,08,10,11,18,27,,,,,,,,4.4,2.5,3.6,1*28
$GPGSV,2,1,05,08,68,264,49,10,64,103,50,11,29,275,47,18,37,062,48,1*60
$GPGSV,2,2,05,27,61,164,49,,,,,,,,,,,,,1*5D
$GPRMC,172443.90,A,5746.8436582,N,01246.2653534,E,20.82,7.51,040716,0.0,E,D*06
$GPGGA,172443.90,5746.8436582,N,01246.2653534,E,5,05,1.0,193.947,M,35.049,M,1.7,*47
$GPGSA,A,3,08,10,11,18,27,,,,,,,,4.4,2.5,3.6,1*28
$GPGSV,2,1,05,08,68,264,49,10,64,103,50,11,29,275,47,18,37,062,48,1*60
$GPGSV,2,2,05,27,61,164,49,,,,,,,,,,,,,1*5D
$GPGSA,A,3,08,10,11,18,27,,,,,,,,4.4,2.5,3.6,1*28
$GPGSV,2,1,05,08,68,264,49,10,64,103,50,11,29,275,47,18,37,062,47,1*6F
$GPGSV,2,2,05,27,61,164,49,,,,,,,,,,,,,1*5D
$GPRMC,172444.10,A,5746.8444533,N,01246.2657893,E,16.88,53.48,040716,0.0,E,D*34
$GPGGA,172444.10,5746.8444533,N,01246.2657893,E,5,05,1.0,193.923,M,35.049,M,1.9,*4F
$GPGSA,A,3,08,10,11,18,27,,,,,,,,4.4,2.5,3.6,1*28
$GPGSV,2,1,05,08,68,264,49,10,64,103,50,11,29,275,47,18,37,062,47,1*6F
$GPGSV,2,2,05,27,61,164,49,,,,,,,,,,,,,1*5D
$GPRMC,172444.20,A,5746.8448456,N,01246.2660158,E,12.29,4.57,040716,0.0,E,D*00
$GPGGA,172444.20,5746.8448456,N,01246.2660158,E,5,05,1.0,193.917,M,35.049,M,2.0,*45
$GPGSA,A,3,08,10,11,18,27,,,,,,,,4.4,2.5,3.6,1*28
$GPGSV,2,1,05,08,68,264,49,10,64,103,50,11,29,275,47,18,37,062,47,1*6F
$GPGSV,2,2,05,27,61,164,49,,,,,,,,,,,,,1*5D
$GPGSA,A,3,08,10,11,18,27,,,,,,,,4.4,2.5,3.6,1*28
$GPGSV,2,1,05,08,68,264,49,10,64,103,50,11,29,275,47,18,37,062,47,1*6F
$GPGSV,2,2,05,27,61,164,49,,,,,,,,,,,,,1*5D
$GPGSA,A,3,08,10,11,18,27,,,,,,,,4.4,2.5,3.6,1*28
$GPGSV,2,1,05,08,68,264,49,10,64,103,50,11,29,275,47,18,37,062,47,1*6F
$GPGSV,2,2,05,27,61,164,49,,,,,,,,,,,,,1*5D
$GPRMC,172444.50,A,5746.8460258,N,01246.2667695,E,26.74,0.10,040716,0.0,E,D*0C
$GPGGA,172444.50,5746.8460258,N,01246.2667695,E,5,05,1.0,193.888,M,35.049,M,2.3,*45
$GPGSA,A,3,08,10,11,18,27,,,,,,,,4.4,2.5,3.6,1*28
$GPGSV,2,1,05,08,68,264,49,10,64,103,50,11,29,275,47,18,37,062,47,1*6F
$GPGSV,2,2,05,27,61,164,49,,,,,,,,,,,,,1*5D
$GPGSA,A,3,08,10,11,18,27,,,,,,,,4.4,2.5,3.6,1*28
$GPGSV,2,1,05,08,68,264,49,10,64,103,50,11,29,275,47,18,37,062,47,1*6F
$GPGSV,2,2,05,27,61,164,49,,,,,,,,,,,,,1*5D
$GPRMC,172444.70,A,5746.8468099,N,01246.2673168,E,26.91,12.07,040716,0.0,E,D*37
$GPGGA,172444.70,5746.8468099,N,01246.2673168,E,5,05,1.0,193.883,M,35.049,M,2.5,*4D
$GPGSA,A,3,08,10,11,18,27,,,,,,,,4.4,2.5,3.6,1*28
$GPGSV,2,1,05,08,68,264,49,10,64,103,50,11,29,275,47,18,37,062,47,1*6F
$GPGSV,2,2,05,27,61,164,49,,,,,,,,,,,,,1*5D
$GPRMC,172444.80,A,5746.8472000,N,01246.2676001,E,13.77,27.91,040716,0.0,E,D*3F
$GPGGA,172444.80,5746.8472000,N,01246.2676001,E,5,05,1.0,193.870,M,35.049,M,2.6,*4D
$GPGSA,A,3,08,10,11,18,27,,,,,,,,4.4,2.5,3.6,1*28
$GPGSV,2,1,05,08,68,264,49,10,64,103,50,11,29,275,47,18,37,062,47,1*6F
$GPGSV,2,2,05,27,61,164,49,,,,,,,,,,,,,1*5D
$GPRMC,172444.90,A,5746.8475899,N,01246.2678864,E,19.43,13.53,040716,0.0,E,D*30
$GPGGA,172444.90,5746.8475899,N,01246.2678864,E,5,05,1.0,193.875,M,35.049,M,0.7,*40
$GPGSA,A,3,08,10,11,18,27,,,,,,,,4.4,2.5,3.6,1*28
$GPGSV,2,1,05,08,68,264,49,10,64,103,50,11,29,275,47,18,37,062,48,1*60
$GPGSV,2,2,05,27,61,164,49,,,,,,,,,,,,,1*5D
$GPRMC,172445.20,A,5746.8487577,N,01246.2687446,E,20.58,7.65,040716,0.0,E,D*06
$GPGGA,172445.20,5746.8487577,N,01246.2687446,E,5,05,1.0,193.864,M,35.049,M,1.0,*40
$GPGSA,A,3,08,10,11,18,27,,,,,,,,4.4,2.5,3.6,1*28
$GPGSV,2,1,05,08,68,264,49,10,64,103,50,11,29,275,47,18,37,062,48,1*60
$GPGSV,2,2,05,27,61,164,49,,,,,,,,,,,,,1*5D
$GPRMC,172445.30,A,5746.8491474,N,01246.2690220,E,22.85,11.70,040716,0.0,E,D*33
$GPGGA,172445.30,5746.8491474,N,01246.2690220,E,5,05,1.0,193.863,M,35.049,M,1.1,*42
$GPGSA,A,3,08,10,11,18,27,,,,,,,,4.4,2.5,3.6,1*28
$GPGSV,2,1,05,08,68,264,49,10,64,103,50,11,29,275,47,18,37,062,48,1*60
$GPGSV,2,2,05,27,61,164,49,,,,,,,,,,,,,1*5D
$GPGSA,A,3,08,10,11,18,27,,,,,,,,4.4,2.5,3.6,1*28
$GPGSV,2,1,05,08,68,264,49,10,64,103,50,11,29,275,47,18,37,062,48,1*60
$GPGSV,2,2,05,27,61,164,49,,,,,,,,,,,,,1*5D
$GPRMC,172445.60,A,5746.8503238,N,01246.2698389,E,24.13,2.07,040716,0.0,E,D*03
$GPGGA,172445.60,5746.8503238,N,01246.2698389,E,5,05,1.0,193.861,M,35.049,M,1.4,*4E
$GPGSA,A,3,08,10,11,18,27,,,,,,,,4.4,2.5,3.6,1*28
$GPGSV,2,1,05,08,68,264,49,10,64,103,50,11,29,275,47,18,37,062,48,1*60
$GPGSV,2,2,05,27,61,164,49,,,,,,,,,,,,,1*5D
$GPRMC,172445.70,A,5746.8507181,N,01246.2701099,E,19.19,12.51,040716,0.0,E,D*32
$GPGGA,172445.70,5746.8507181,N,01246.2701099,E,5,05,1.0,193.851,M,35.049,M,1.5,*4B
$GPGSA,A,3,08,10,11,18,27,,,,,,,,4.4,2.5,3.6,1*28
$GPGSV,2,1,05,08,68,264,49,10,64,103,50,11,29,275,47,18,37,062,48,1*60
$GPGSV,2,2,05,27,61,164,49,,,,,,,,,,,,,1*5D
$GPRMC,172445.80,A,5746.8511126,N,01246.2703721,E,14.17,17.24,040716,0.0,E,D*35
$GPGGA,172445.80,5746.8511126,N,01246.2703721,E,5,05,1.0,193.845,M,35.049,M,1.6,*4E
$GPRMC,172445.90,A,5746.8515083,N,01246.2706311,E,11.09,31.30,040716,0.0,E,D*37
$GPGGA,172445.90,5746.8515083,N,01246.2706311,E,5,05,1.0,193.834,M,35.049,M,1.7,*40
$GPRMC,172446.00,A,5746.8519011,N,01246.2708947,E,21.08,13.72,040716,0.0,E,D*39
$GPGGA,172446.00,5746.8519011,N,01246.2708947,E,5,05,1.0,193.836,M,35.048,M,0.8,*47
$GPGSA,A,3,08,10,11,18,27,,,,,,,,4.4,2.5,3.6,1*28
$GPGSV,2,1,05,08,68,264,49,10,64,103,50,11,29,275,47,18,37,062,48,1*60
$GPGSV,2,2,05,27,61,164,49,,,,,,,,,,,,,1*5D
$GPRMC,172446.20,A,5746.8526982,N,01246.2714294,E,17.43,14.49,040716,0.0,E,D*39
$GPGGA,172446.20,5746.8526982,N,01246.2714294,E,5,05,1.0,193.835,M,35.048,M,1.0,*48
$GPGSA,A,3,08,10,11,18,27,,,,,,,,4.4,2.5,3.6,1*28
$GPGSV,2,1,05,08,68,264,49,10,64,103,50,11,29,275,47,18,37,062,48,1*60
$GPGSV,2,2,05,27,61,164,49,,,,,,,,,,,,,1*5D
$GPRMC,172446.30,A,5746.8531075,N,01246.2717179,E,28.14,8.83,040716,0.0,E,D*09
$GPGGA,172446.30,5746.8531075,N,01246.2717179,E,5,05,1.0,193.827,M,35.048,M,1.1,*4F
$GPGSA,A,3,08,10,11,18,27,,,,,,,,4.4,2.5,3.6,1*28
$GPGSV,2,1,05,08,68,264,49,10,64,103,50,11,29,275,47,18,37,062,48,1*60
$GPGSV,2,2,05,27,61,164,49,,,,,,,,,,,,,1*5D
$GPGSA,A,3,08,10,11,18,27,,,,,,,,4.4,2.5,3.6,1*28
$GPGSV,2,1,05,08,68,264,49,10,64,103,50,11,29,275,47,18,37,062,48,1*60
$GPGSV,2,2,05,27,61,164,49,,,,,,,,,,,,,1*5D
$GPGSA,A,3,08,10,11,18,27,,,,,,,,4.4,2.5,3.6,1*28
$GPGSV,2,1,05,08,68,264,49,10,64,103,50,11,29,275,47,18,37,062,48,1*60
$GPGSV,2,2,05,27,61,164,49,,,,,,,,,,,,,1*5D
$GPRMC,172447.00,A,5746.8565317,N,01246.2746234,E,33.18,16.32,040716,0.0,E,D*30
$GPGGA,172447.00,5746.8565317,N,01246.2746234,E,5,05,1.0,193.769,M,35.048,M,0.8,*48
$GPGSA,A,3,08,10,11,18,27,,,,,,,,4.4,2.5,3.6,1*28
$GPGSV,2,1,05,08,68,264,48,10,64,103,50,11,29,275,47,18,37,062,47,1*6E
$GPGSV,2,2,05,27,61,164,49,,,,,,,,,,,,,1*5D
$GPRMC,172447.10,A,5746.8571009,N,01246.2752048,E,24.48,32.60,040716,0.0,E,D*36
$GPGGA,172447.10,5746.8571009,N,01246.2752048,E,5,05,1.0,193.754,M,35.048,M,0.9,*43
$GPGSA,A,3,08,10,11,18,27,,,,,,,,4.4,2.5,3.6,1*28
$GPGSV,2,1,05,08,68,264,48,10,64,103,50,11,29,275,47,18,37,062,47,1*6E
$GPGSV,2,2,05,27,61,164,49,,,,,,,,,,,,,1*5D
$GPRMC,172447.40,A,5746.8589279,N,01246.2773029,E,34.24,24.32,040716,0.0,E,D*3E
$GPGGA,172447.40,5746.8589279,N,01246.2773029,E,5,05,1.0,193.716,M,35.048,M,1.2,*4C
$GPGSA,A,3,08,10,11,18,27,,,,,,,,4.4,2.5,3.6,1*28
$GPGSV,2,1,05,08,68,264,48,10,64,103,50,11,29,275,47,18,37,062,47,1*6E
$GPGSV,2,2,05,27,61,164,49,,,,,,,,,,,,,1*5D
$GPRMC,172447.60,A,5746.8602393,N,01246.2790326,E,28.00,41.86,040716,0.0,E,D*3F
$GPGGA,172447.60,5746.8602393,N,01246.2790326,E,5,05,1.0,193.696,M,35.048,M,1.4,*45
$GPRMC,172447.70,A,5746.8609188,N,01246.2800100,E,30.61,36.34,040716,0.0,E,D*3A
$GPGGA,172447.70,5746.8609188,N,01246.2800100,E,5,05,1.0,193.684,M,35.048,M,1.5,*45
$GPRMC,172447.80,A,5746.8616074,N,01246.2810507,E,31.07,38.05,040716,0.0,E,D*36
$GPGGA,172447.80,5746.8616074,N,01246.2810507,E,5,05,1.0,193.660,M,35.048,M,1.6,*4D
$GPGSA,A,3,08,10,11,18,27,,,,,,,,4.4,2.5,3.6,1*28
$GPGSV,2,1,05,08,68,264,48,10,64,103,50,11,29,275,47,18,37,062,47,1*6E
$GPGSV,2,2,05,27,61,164,49,,,,,,,,,,,,,1*5D
$GPRMC,172447.90,A,5746.8623027,N,01246.2821541,E,40.55,42.26,040716,0.0,E,D*3A
$GPGGA,172447.90,5746.8623027,N,01246.2821541,E,5,05,1.0,193.642,M,35.048,M,1.7,*4D
$GPGSA,A,3,08,10,11,18,27,,,,,,,,4.4,2.5,3.6,1*28
$GPGSV,2,1,05,08,68,264,48,10,64,103,50,11,29,275,47,18,37,062,47,1*6E
$GPGSV,2,2,05,27,61,164,49,,,,,,,,,,,,,1*5D
$GPRMC,172448.00,A,5746.8629946,N,01246.2833010,E,32.89,38.46,040716,0.0,E,D*35
$GPGGA,172448.00,5746.8629946,N,01246.2833010,E,5,05,1.0,193.627,M,35.048,M,1.8,*41
$GPGSA,A,3,08,10,11,18,27,,,,,,,,4.4,2.5,3.6,1*28
$GPGSV,2,1,05,08,68,264,49,10,64,103,50,11,29,275,47,18,37,062,47,1*6F
$GPGSV,2,2,05,27,61,164,48,,,,,,,,,,,,,1*5C
$GPGSA,A,3,08,10,11,18,27,,,,,,,,4.4,2.5,3.6,1*28
$GPGSV,2,1,05,08,68,264,49,10,64,103,50,11,29,275,47,18,37,062,47,1*6F
$GPGSV,2,2,05,27,61,164,48,,,,,,,,,,,,,1*5C
$GPGSA,A,3,08,10,11,18,27,,,,,,,,4.4,2.5,3.6,1*28
$GPGSV,2,1,05,08,68,264,49,10,64,103,50,11,29,275,47,18,37,062,47,1*6F
$GPGSV,2,2,05,27,61,164,48,,,,,,,,,,,,,1*5C
$GPGSA,A,3,08,10,11,18,27,,,,,,,,4.4,2.5,3.6,1*28
$GPGSV,2,1,05,08,68,264,49,10,64,103,50,11,29,275,47,18,37,062,47,1*6F
$GPGSV,2,2,05,27,61,164,48,,,,,,,,,,,,,1*5C
$GPRMC,172448.40,A,5746.8655308,N,01246.2883315,E,39.33,60.87,040716,0.0,E,D*3D
$GPGGA,172448.40,5746.8655308,N,01246.2883315,E,5,05,1.0,193.549,M,35.048,M,2.2,*41
$GPGSA,A,3,08,10,11,18,27,,,,,,,,4.4,2.5,3.6,1*28
$GPGSV,2,1,05,08,68,264,49,10,64,103,50,11,29,275,47,18,37,062,47,1*6F
$GPGSV,2,2,05,27,61,164,48,,,,,,,,,,,,,1*5C
$GPGSA,A,3,08,10,11,18,27,,,,,,,,4.4,2.5,3.6,1*28
$GPGSV,2,1,05,08,68,264,49,10,64,103,50,11,29,275,47,18,37,062,47,1*6F
$GPGSV,2,2,05,27,61,164,48,,,,,,,,,,,,,1*5C
$GPRMC,172448.60,A,5746.8666025,N,01246.2910723,E,38.20,43.85,040716,0.0,E,D*39
$GPGGA,172448.60,5746.8666025,N,01246.2910723,E,5,05,1.0,193.510,M,35.048,M,2.4,*4F
$GPGSA,A,3,08,10,11,18,27,,,,,,,,4.4,2.5,3.6,1*28
$GPGSV,2,1,05,08,68,264,49,10,64,103,50,11,29,275,47,18,37,062,47,1*6F
$GPGSV,2,2,05,27,61,164,48,,,,,,,,,,,,,1*5C
$GPRMC,172449.10,A,5746.8687080,N,01246.2985299,E,40.89,41.45,040716,0.0,E,D*35
$GPGGA,172449.10,5746.8687080,N,01246.2985299,E,5,05,1.0,193.444,M,35.047,M,2.9,*43
$GPGSA,A,3,08,10,11,18,27,,,,,,,,4.4,2.5,3.6,1*28
$GPGSV,2,1,05,08,68,264,49,10,64,103,50,11,29,275,46,18,37,062,45,1*6C
$GPGSV,2,2,05,27,61,164,48,,,,,,,,,,,,,1*5C
$GPRMC,172449.30,A,5746.8693134,N,01246.3017291,E,30.19,73.02,040716,0.0,E,D*3B
$GPGGA,172449.30,5746.8693134,N,01246.3017291,E,5,05,1.0,193.407,M,35.047,M,3.1,*4F
$GPRMC,172449.50,A,5746.8697727,N,01246.3050106,E,33.65,68.75,040716,0.0,E,D*31
$GPGGA,172449.50,5746.8697727,N,01246.3050106,E,5,05,1.0,193.382,M,35.047,M,3.3,*4F
$GPRMC,172449.70,A,5746.8700970,N,01246.3083560,E,35.67,86.68,040716,0.0,E,D*32
$GPGGA,172449.70,5746.8700970,N,01246.3083560,E,5,05,1.0,193.353,M,35.047,M,3.5,*4E
$GPRMC,172449.80,A,5746.8702178,N,01246.3100439,E,34.32,70.22,040716,0.0,E,D*3E
$GPGGA,172449.80,5746.8702178,N,01246.3100439,E,5,05,1.0,193.331,M,35.047,M,3.6,*43
$GPRMC,172451.00,A,5746.8703411,N,01246.3304654,E,33.49,86.89,040716,0.0,E,D*38
$GPGGA,172451.00,5746.8703411,N,01246.3304654,E,5,05,1.0,193.142,M,35.047,M,4.8,*49
$GPGSA,A,3,08,10,11,18,27,,,,,,,,4.4,2.5,3.6,1*28
$GPGSV,2,1,05,08,68,264,49,10,64,103,50,11,29,275,45,18,37,062,48,1*62
$GPGSV,2,2,05,27,61,164,49,,,,,,,,,,,,,1*5D
$GPRMC,172451.40,A,5746.8698084,N,01246.3371764,E,39.36,117.75,040716,0.0,E,D*0F
$GPGGA,172451.40,5746.8698084,N,01246.3371764,E,5,05,1.0,193.103,M,35.047,M,5.2,*48
$GPGSA,A,3,08,10,11,18,27,,,,,,,,4.4,2.5,3.6,1*28
$GPGSV,2,1,05,08,68,264,49,10,64,103,50,11,29,275,45,18,37,062,48,1*62
$GPGSV,2,2,05,27,61,164,49,,,,,,,,,,,,,1*5D
$GPGSA,A,3,08,10,11,18,27,,,,,,,,4.4,2.5,3.6,1*28
$GPGSV,2,1,05,08,68,264,49,10,64,103,50,11,29,275,45,18,37,062,48,1*62
$GPGSV,2,2,05,27,61,164,49,,,,,,,,,,,,,1*5D
$GPGSA,A,3,08,10,11,18,27,,,,,,,,4.4,2.5,3.6,1*28
$GPGSV,2,1,05,08,68,264,49,10,64,103,50,11,29,275,45,18,37,062,48,1*62
$GPGSV,2,2,05,27,61,164,49,,,,,,,,,,,,,1*5D
$GPGSA,A,3,08,10,11,18,27,,,,,,,,4.4,2.5,3.6,1*28
$GPGSV,2,1,05,08,68,264,49,10,64,103,50,11,29,275,45,18,37,062,48,1*62
$GPGSV,2,2,05,27,61,164,49,,,,,,,,,,,,,1*5D
$GPRMC,172453.10,A,5746.8614708,N,01246.3606766,E,29.82,140.53,040716,0.0,E,D*00
$GPGGA,172453.10,5746.8614708,N,01246.3606766,E,5,05,1.0,192.956,M,35.047,M,6.9,*4E
$GPGSA,A,3,08,10,11,18,27,,,,,,,,4.4,2.5,3.6,1*28
$GPGSV,2,1,05,08,68,263,49,10,64,103,50,11,29,275,45,18,37,062,47,1*6A
$GPGSV,2,2,05,27,61,164,49,,,,,,,,,,,,,1*5D
$GPRMC,172453.40,A,5746.8591797,N,01246.3633851,E,28.47,152.61,040716,0.0,E,D*0A
$GPGGA,172453.40,5746.8591797,N,01246.3633851,E,5,05,1.0,192.951,M,35.047,M,7.2,*43
$GPRMC,172453.50,A,5746.8583785,N,01246.3641654,E,32.47,151.69,040716,0.0,E,D*05
$GPGGA,172453.50,5746.8583785,N,01246.3641654,E,5,05,1.0,192.948,M,35.047,M,7.3,*45
$GPGSA,A,3,08,10,11,18,27,,,,,,,,4.4,2.5,3.6,1*28
$GPGSV,2,1,05,08,68,263,49,10,64,103,50,11,29,275,45,18,37,062,47,1*6A
$GPGSV,2,2,05,27,61,164,49,,,,,,,,,,,,,1*5D
$GPRMC,172453.90,A,5746.8550045,N,01246.3666167,E,26.10,159.47,040716,0.0,E,D*0D
$GPGGA,172453.90,5746.8550045,N,01246.3666167,E,5,05,1.0,192.953,M,35.047,M,7.7,*40
$GPRMC,172454.00,A,5746.8541327,N,01246.3670581,E,28.98,166.07,040716,0.0,E,D*09
$GPGGA,172454.00,5746.8541327,N,01246.3670581,E,5,05,1.0,192.951,M,35.047,M,7.8,*4F
$GPGSA,A,3,08,10,11,18,27,,,,,,,,4.4,2.5,3.6,1*28
$GPGSV,2,1,05,08,68,263,49,10,64,103,50,11,29,275,45,18,37,062,47,1*6A
$GPGSV,2,2,05,27,61,164,49,,,,,,,,,,,,,1*5D
$GPGSA,A,3,08,10,11,18,27,,,,,,,,4.4,2.5,3.6,1*28
$GPGSV,2,1,05,08,68,263,49,10,64,103,50,11,29,275,45,18,37,062,47,1*6A
$GPGSV,2,2,05,27,61,164,49,,,,,,,,,,,,,1*5D
$GPRMC,172454.60,A,5746.8487482,N,01246.3682097,E,31.29,182.54,040716,0.0,E,D*0D
$GPGGA,172454.60,5746.8487482,N,01246.3682097,E,5,05,1.0,192.990,M,35.047,M,8.4,*4B
$GPGSA,A,3,08,10,11,18,27,,,,,,,,4.4,2.5,3.6,1*28
$GPGSV,2,1,05,08,68,263,49,10,64,103,50,11,29,275,45,18,37,062,47,1*6A
$GPGSV,2,2,05,27,61,164,49,,,,,,,,,,,,,1*5D
$GPGSA,A,3,08,10,11,18,27,,,,,,,,4.4,2.5,3.6,1*28
$GPGSV,2,1,05,08,68,263,49,10,64,103,50,11,29,275,45,18,37,062,47,1*6A
$GPGSV,2,2,05,27,61,164,49,,,,,,,,,,,,,1*5D
$GPRMC,172454.80,A,5746.8469411,N,01246.3680243,E,32.43,183.36,040716,0.0,E,D*0A
$GPGGA,172454.80,5746.8469411,N,01246.3680243,E,5,05,1.0,193.006,M,35.047,M,8.6,*43
$GPGSA,A,3,08,10,11,18,27,,,,,,,,4.4,2.5,3.6,1*28
$GPGSV,2,1,05,08,68,263,49,10,64,103,50,11,29,275,45,18,37,062,47,1*6A
$GPGSV,2,2,05,27,61,164,49,,,,,,,,,,,,,1*5D
$GPRMC,172454.90,A,5746.8460457,N,01246.3678243,E,30.24,184.71,040716,0.0,E,D*00
$GPGGA,172454.90,5746.8460457,N,01246.3678243,E,5,05,1.0,193.018,M,35.047,M,0.7,*48
$GPGSA,A,3,08,10,11,18,27,,,,,,,,4.4,2.5,3.6,1*28
$GPGSV,2,1,05,08,68,263,49,10,64,103,50,11,29,275,45,18,37,062,47,1*6A
$GPGSV,2,2,05,27,61,164,49,,,,,,,,,,,,,1*5D
$GPRMC,172455.00,A,5746.8451564,N,01246.3675544,E,30.34,186.79,040716,0.0,E,D*0D
$GPGGA,172455.00,5746.8451564,N,01246.3675544,E,5,05,1.0,193.028,M,35.047,M,0.8,*42
$GPGSA,A,3,08,10,11,18,27,,,,,,,,4.4,2.5,3.6,1*28
$GPGSV,2,1,05,08,68,263,49,10,64,103,50,11,29,275,45,18,37,062,48,1*65
$GPGSV,2,2,05,27,61,164,49,,,,,,,,,,,,,1*5D
$GPGSA,A,3,08,10,11,18,27,,,,,,,,4.4,2.5,3.6,1*28
$GPGSV,2,1,05,08,68,263,49,10,64,103,50,11,29,275,45,18,37,062,48,1*65
$GPGSV,2,2,05,27,61,164,49,,,,,,,,,,,,,1*5D
$GPRMC,172455.20,A,5746.8433948,N,01246.3668079,E,39.30,195.48,040716,0.0,E,D*03
$GPGGA,172455.20,5746.8433948,N,01246.3668079,E,5,05,1.0,193.040,M,35.047,M,1.0,*46
$GPRMC,172455.30,A,5746.8425310,N,01246.3663228,E,37.42,203.90,040716,0.0,E,D*0D
$GPGGA,172455.30,5746.8425310,N,01246.3663228,E,5,05,1.0,193.059,M,35.047,M,1.1,*43
$GPRMC,172455.50,A,5746.8408319,N,01246.3651648,E,33.37,204.72,040716,0.0,E,D*03
$GPGGA,172455.50,5746.8408319,N,01246.3651648,E,5,05,1.0,193.070,M,35.047,M,1.3,*49
$GPRMC,172455.60,A,5746.8400039,N,01246.3644847,E,30.42,207.65,040716,0.0,E,D*08
$GPGGA,172455.60,5746.8400039,N,01246.3644847,E,5,05,1.0,193.072,M,35.047,M,1.4,*43
$GPGSA,A,3,08,10,11,18,27,,,,,,,,4.4,2.5,3.6,1*28
$GPGSV,2,1,05,08,68,263,49,10,64,103,50,11,29,275,45,18,37,062,48,1*65
$GPGSV,2,2,05,27,61,164,49,,,,,,,,,,,,,1*5D
$GPGSA,A,3,08,10,11,18,27,,,,,,,,4.4,2.5,3.6,1*28
$GPGSV,2,1,05,08,68,263,49,10,64,103,50,11,29,275,45,18,37,062,48,1*65
$GPGSV,2,2,05,27,61,164,49,,,,,,,,,,,,,1*5D
$GPGSA,A,3,08,10,11,18,27,,,,,,,,4.4,2.5,3.6,1*28
$GPGSV,2,1,05,08,68,263,49,10,64,103,50,11,29,275,45,18,37,062,48,1*65
$GPGSV,2,2,05,27,61,164,49,,,,,,,,,,,,,1*5D
$GPGSA,A,3,08,10,11,18,27,,,,,,,,4.4,2.5,3.6,1*28
$GPGSV,2,1,05,08,68,263,49,10,64,103,50,11,29,275,45,18,37,062,48,1*65
$GPGSV,2,2,05,27,61,164,49,,,,,,,,,,,,,1*5D
$GPRMC,172456.00,A,5746.8368698,N,01246.3611232,E,34.68,211.62,040716,0.0,E,D*0D
$GPGGA,172456.00,5746.8368698,N,01246.3611232,E,5,05,1.0,193.125,M,35.047,M,0.8,*44
$GPGSA,A,3,08,10,11,18,27,,,,,,,,4.4,2.5,3.6,1*28
$GPGSV,2,1,05,08,68,263,49,10,64,103,49,11,29,275,46,18,37,062,48,1*6E
$GPGSV,2,2,05,27,61,164,49,,,,,,,,,,,,,1*5D
$GPGSA,A,3,08,10,11,18,27,,,,,,,,4.4,2.5,3.6,1*28
$GPGSV,2,1,05,08,68,263,49,10,64,103,49,11,29,275,46,18,37,062,48,1*6E
$GPGSV,2,2,05,27,61,164,49,,,,,,,,,,,,,1*5D
$GPRMC,172456.20,A,5746.8354248,N,01246.3590839,E,32.27,222.99,040716,0.0,E,D*0B
$GPGGA,172456.20,5746.8354248,N,01246.3590839,E,5,05,1.0,193.160,M,35.047,M,1.0,*43
$GPRMC,172456.40,A,5746.8340837,N,01246.3568240,E,43.73,209.32,040716,0.0,E,D*06
$GPGGA,172456.40,5746.8340837,N,01246.3568240,E,5,05,1.0,193.186,M,35.047,M,1.2,*4B
$GPGSA,A,3,08,10,11,18,27,,,,,,,,4.4,2.5,3.6,1*28
$GPGSV,2,1,05,08,68,263,49,10,64,103,49,11,29,275,46,18,37,062,48,1*6E
$GPGSV,2,2,05,27,61,164,49,,,,,,,,,,,,,1*5D
$GPGSA,A,3,08,10,11,18,27,,,,,,,,4.4,2.5,3.6,1*28
$GPGSV,2,1,05,08,68,263,49,10,64,103,49,11,29,275,46,18,37,062,48,1*6E
$GPGSV,2,2,05,27,61,164,49,,,,,,,,,,,,,1*5D
$GPRMC,172456.60,A,5746.8328466,N,01246.3543523,E,36.18,231.86,040716,0.0,E,D*02
$GPGGA,172456.60,5746.8328466,N,01246.3543523,E,5,05,1.0,193.221,M,35.047,M,1.4,*4C
$GPGSA,A,3,08,10,11,18,27,,,,,,,,4.4,2.5,3.6,1*28
$GPGSV,2,1,05,08,68,263,49,10,64,103,49,11,29,275,46,18,37,062,48,1*6E
$GPGSV,2,2,05,27,61,164,49,,,,,,,,,,,,,1*5D
$GPRMC,172456.80,A,5746.8317267,N,01246.3516984,E,32.48,234.46,040716,0.0,E,D*0E
$GPGGA,172456.80,5746.8317267,N,01246.3516984,E,5,05,1.0,193.244,M,35.048,M,1.6,*46
$GPGSA,A,3,08,10,11,18,27,,,,,,,,4.4,2.5,3.6,1*28
$GPGSV,2,1,05,08,68,263,49,10,64,103,49,11,29,275,46,18,37,062,48,1*6E
$GPGSV,2,2,05,27,61,164,49,,,,,,,,,,,,,1*5D
$GPGSA,A,3,08,10,11,18,27,,,,,,,,4.4,2.5,3.6,1*28
$GPGSV,2,1,05,08,68,263,49,10,64,103,49,11,29,275,45,18,37,062,48,1*6D
$GPGSV,2,2,05,27,61,164,49,,,,,,,,,,,,,1*5D
$GPRMC,172457.10,A,5746.8302889,N,01246.3474059,E,34.44,234.71,040716,0.0,E,D*0A
$GPGGA,172457.10,5746.8302889,N,01246.3474059,E,5,05,1.0,193.278,M,35.048,M,0.9,*4D
$GPGSA,A,3,08,10,11,18,27,,,,,,,,4.4,2.5,3.6,1*28
$GPGSV,2,1,05,08,68,263,49,10,64,103,49,11,29,275,45,18,37,062,48,1*6D
$GPGSV,2,2,05,27,61,164,49,,,,,,,,,,,,,1*5D
$GPGSA,A,3,08,10,11,18,27,,,,,,,,4.4,2.5,3.6,1*28
$GPGSV,2,1,05,08,68,263,49,10,64,103,49,11,29,275,45,18,37,062,48,1*6D
$GPGSV,2,2,05,27,61,164,49,,,,,,,,,,,,,1*5D
$GPRMC,172457.30,A,5746.8294966,N,01246.3443603,E,35.85,238.02,040716,0.0,E,D*0F
$GPGGA,172457.30,5746.8294966,N,01246.3443603,E,5,05,1.0,193.295,M,35.048,M,1.1,*46
$GPGSA,A,3,08,10,11,18,27,,,,,,,,4.4,2.5,3.6,1*28
$GPGSV,2,1,05,08,68,263,49,10,64,103,49,11,29,275,45,18,37,062,48,1*6D
$GPGSV,2,2,05,27,61,164,49,,,,,,,,,,,,,1*5D
$GPRMC,172457.40,A,5746.8291542,N,01246.3427940,E,31.09,248.52,040716,0.0,E,D*0F
$GPGGA,172457.40,5746.8291542,N,01246.3427940,E,5,05,1.0,193.307,M,35.048,M,1.2,*4D
$GPRMC,172457.50,A,5746.8288559,N,01246.3412023,E,33.89,243.83,040716,0.0,E,D*0B
$GPGGA,172457.50,5746.8288559,N,01246.3412023,E,5,05,1.0,193.329,M,35.048,M,1.3,*49
$GPGSA,A,3,08,10,11,18,27,,,,,,,,4.4,2.5,3.6,1*28
$GPGSV,2,1,05,08,68,263,49,10,64,103,49,11,29,275,45,18,37,062,48,1*6D
$GPGSV,2,2,05,27,61,164,49,,,,,,,,,,,,,1*5D
$GPGSA,A,3,08,10,11,18,27,,,,,,,,4.4,2.5,3.6,1*28
$GPGSV,2,1,05,08,68,263,49,10,64,103,49,11,29,275,45,18,37,062,48,1*6D
$GPGSV,2,2,05,27,61,164,49,,,,,,,,,,,,,1*5D
$GPRMC,172457.70,A,5746.8283649,N,01246.3379485,E,32.37,269.30,040716,0.0,E,D*06
$GPGGA,172457.70,5746.8283649,N,01246.3379485,E,5,05,1.0,193.370,M,35.048,M,1.5,*4A
$GPRMC,172457.80,A,5746.8281760,N,01246.3362940,E,32.61,265.38,040716,0.0,E,D*08
$GPGGA,172457.80,5746.8281760,N,01246.3362940,E,5,05,1.0,193.394,M,35.048,M,1.6,*4A
$GPGSA,A,3,08,10,11,18,27,,,,,,,,4.4,2.5,3.6,1*28
$GPGSV,2,1,05,08,68,263,49,10,64,103,49,11,29,275,45,18,37,062,48,1*6D
$GPGSV,2,2,05,27,61,164,49,,,,,,,,,,,,,1*5D
$GPGSA,A,3,08,10,11,18,27,,,,,,,,4.4,2.5,3.6,1*28
$GPGSV,2,1,05,08,68,263,49,10,64,103,49,11,29,275,45,18,37,062,48,1*6D
$GPGSV,2,2,05,27,61,164,49,,,,,,,,,,,,,1*5D
$GPRMC,172458.00,A,5746.8279223,N,01246.3329396,E,35.60,257.29,040716,0.0,E,D*03
$GPGGA,172458.00,5746.8279223,N,01246.3329396,E,5,05,1.0,193.439,M,35.048,M,0.8,*49
$GPGSA,A,3,08,10,11,18,27,,,,,,,,4.4,2.5,3.6,1*28
$GPGSV,2,1,05,08,68,263,49,10,64,103,49,11,29,275,43,18,37,062,48,1*6B
$GPGSV,2,2,05,27,61,164,48,,,,,,,,,,,,,1*5C
$GPRMC,172458.10,A,5746.8278475,N,01246.3312522,E,32.60,257.53,040716,0.0,E,D*0D
$GPGGA,172458.10,5746.8278475,N,01246.3312522,E,5,05,1.0,193.454,M,35.048,M,0.9,*47
$GPRMC,172458.20,A,5746.8278140,N,01246.3295620,E,34.01,273.75,040716,0.0,E,D*01
$GPGGA,172458.20,5746.8278140,N,01246.3295620,E,5,05,1.0,193.473,M,35.048,M,1.0,*45
$GPGSA,A,3,08,10,11,18,27,,,,,,,,4.4,2.5,3.6,1*28
$GPGSV,2,1,05,08,68,263,49,10,64,103,49,11,29,275,43,18,37,062,48,1*6B
$GPGSV,2,2,05,27,61,164,48,,,,,,,,,,,,,1*5C
$GPRMC,172458.30,A,5746.8278107,N,01246.3278681,E,36.27,279.76,040716,0.0,E,D*04
$GPGGA,172458.30,5746.8278107,N,01246.3278681,E,5,05,1.0,193.485,M,35.048,M,1.1,*47
$GPGSA,A,3,08,10,11,18,27,,,,,,,,4.4,2.5,3.6,1*28
$GPGSV,2,1,05,08,68,263,49,10,64,103,49,11,29,275,43,18,37,062,48,1*6B
$GPGSV,2,2,05,27,61,164,48,,,,,,,,,,,,,1*5C
$GPRMC,172458.40,A,5746.8278292,N,01246.3261714,E,37.12,272.03,040716,0.0,E,D*07
$GPGGA,172458.40,5746.8278292,N,01246.3261714,E,5,05,1.0,193.502,M,35.048,M,1.2,*47
$GPGSA,A,3,08,10,11,18,27,,,,,,,,4.4,2.5,3.6,1*28
$GPGSV,2,1,05,08,68,263,49,10,64,103,49,11,29,275,43,18,37,062,48,1*6B
$GPGSV,2,2,05,27,61,164,48,,,,,,,,,,,,,1*5C
$GPRMC,172458.50,A,5746.8278626,N,01246.3244715,E,36.11,281.21,040716,0.0,E,D*05
$GPGGA,172458.50,5746.8278626,N,01246.3244715,E,5,05,1.0,193.516,M,35.048,M,1.3,*4F
$GPRMC,172458.60,A,5746.8278996,N,01246.3227732,E,31.83,280.50,040716,0.0,E,D*09
$GPGGA,172458.60,5746.8278996,N,01246.3227732,E,5,05,1.0,193.537,M,35.048,M,1.4,*4C
$GPGSA,A,3,08,10,11,18,27,,,,,,,,4.4,2.5,3.6,1*28
$GPGSV,2,1,05,08,68,263,49,10,64,103,49,11,29,275,43,18,37,062,48,1*6B
$GPGSV,2,2,05,27,61,164,48,,,,,,,,,,,,,1*5C
$GPGSA,A,3,08,10,11,18,27,,,,,,,,4.4,2.5,3.6,1*28
$GPGSV,2,1,05,08,68,263,49,10,64,103,49,11,29,275,43,18,37,062,48,1*6B
$GPGSV,2,2,05,27,61,164,48,,,,,,,,,,,,,1*5C
$GPRMC,172458.80,A,5746.8279427,N,01246.3193591,E,33.20,278.14,040716,0.0,E,D*0A
$GPGGA,172458.80,5746.8279427,N,01246.3193591,E,5,05,1.0,193.562,M,35.048,M,1.6,*41
$GPGSA,A,3,08,10,11,18,27,,,,,,,,4.4,2.5,3.6,1*28
$GPGSV,2,1,05,08,68,263,49,10,64,103,49,11,29,275,43,18,37,062,48,1*6B
$GPGSV,2,2,05,27,61,164,48,,,,,,,,,,,,,1*5C
$GPGSA,A,3,08,10,11,18,27,,,,,,,,4.4,2.5,3.6,1*28
$GPGSV,2,1,05,08,68,263,49,10,64,103,49,11,29,275,43,18,37,062,48,1*6B
$GPGSV,2,2,05,27,61,164,48,,,,,,,,,,,,,1*5C
$GPRMC,172459.00,A,5746.8279085,N,01246.3159520,E,33.75,256.42,040716,0.0,E,D*0C
$GPGGA,172459.00,5746.8279085,N,01246.3159520,E,5,05,1.0,193.585,M,35.048,M,0.8,*4E
$GPGSA,A,3,08,10,11,18,27,,,,,,,,4.4,2.5,3.6,1*28
$GPGSV,2,1,05,08,68,263,49,10,64,103,49,11,29,275,41,18,37,062,47,1*66
$GPGSV,2,2,05,27,61,164,48,,,,,,,,,,,,,1*5C
$GPRMC,172459.30,A,5746.8277198,N,01246.3108603,E,30.92,255.59,040716,0.0,E,D*09
$GPGGA,172459.30,5746.8277198,N,01246.3108603,E,5,05,1.0,193.625,M,35.048,M,1.1,*49
$GPRMC,172459.40,A,5746.8276350,N,01246.3091687,E,31.55,265.35,040716,0.0,E,D*07
$GPGGA,172459.40,5746.8276350,N,01246.3091687,E,5,05,1.0,193.644,M,35.048,M,1.2,*40
$GPGSA,A,3,08,10,11,18,27,,,,,,,,4.4,2.5,3.6,1*28
$GPGSV,2,1,05,08,68,263,49,10,64,103,49,11,29,275,41,18,37,062,47,1*66
$GPGSV,2,2,05,27,61,164,48,,,,,,,,,,,,,1*5C
$GPRMC,172459.50,A,5746.8275411,N,01246.3074753,E,29.07,265.96,040716,0.0,E,D*03
$GPGGA,172459.50,5746.8275411,N,01246.3074753,E,5,05,1.0,193.655,M,35.049,M,1.3,*43
$GPRMC,172459.60,A,5746.8274470,N,01246.3057844,E,34.66,249.46,040716,0.0,E,D*06
$GPGGA,172459.60,5746.8274470,N,01246.3057844,E,5,05,1.0,193.669,M,35.049,M,1.4,*46
$GPGSA,A,3,08,10,11,18,27,,,,,,,,4.4,2.5,3.6,1*28
$GPGSV,2,1,05,08,68,263,49,10,64,103,49,11,29,275,41,18,37,062,47,1*66
$GPGSV,2,2,05,27,61,164,48,,,,,,,,,,,,,1*5C
$GPRMC,172459.70,A,5746.8273468,N,01246.3040938,E,35.32,270.40,040716,0.0,E,D*09
$GPGGA,172459.70,5746.8273468,N,01246.3040938,E,5,05,1.0,193.690,M,35.049,M,1.5,*42
$GPGSA,A,3,08,10,11,18,27,,,,,,,,4.4,2.5,3.6,1*28
$GPGSV,2,1,05,08,68,263,49,10,64,103,49,11,29,275,41,18,37,062,47,1*66
$GPGSV,2,2,05,27,61,164,48,,,,,,,,,,,,,1*5C
$GPRMC,172459.80,A,5746.8272455,N,01246.3024154,E,29.40,261.32,040716,0.0,E,D*04
$GPGGA,172459.80,5746.8272455,N,01246.3024154,E,5,05,1.0,193.702,M,35.049,M,1.6,*4B
$GPGSA,A,3,08,10,11,18,27,,,,,,,,4.4,2.5,3.6,1*28
$GPGSV,2,1,05,08,68,263,49,10,64,103,49,11,29,275,41,18,37,062,47,1*66
$GPGSV,2,2,05,27,61,164,48,,,,,,,,,,,,,1*5C
$GPRMC,172459.90,A,5746.8271476,N,01246.3007622,E,31.67,272.12,040716,0.0,E,D*0C
$GPGGA,172459.90,5746.8271476,N,01246.3007622,E,5,05,1.0,193.725,M,35.049,M,1.7,*4B
$GPGSA,A,3,08,10,11,18,27,,,,,,,,4.4,2.5,3.6,1*28
$GPGSV,2,1,05,08,68,263,49,10,64,103,49,11,29,275,41,18,37,062,47,1*66
$GPGSV,2,2,05,27,61,164,48,,,,,,,,,,,,,1*5C
$GPRMC,172500.00,A,5746.8270564,N,01246.2991441,E,36.45,248.31,040716,0.0,E,D*04
$GPGGA,172500.00,5746.8270564,N,01246.2991441,E,5,05,1.0,193.735,M,35.049,M,0.8,*43
$GPGSA,A,3,08,10,11,18,27,,,,,,,,4.4,2.5,3.6,1*28
$GPGSV,2,1,05,08,68,263,49,10,64,103,50,11,29,275,41,18,37,062,48,1*61
$GPGSV,2,2,05,27,61,164,49,,,,,,,,,,,,,1*5D
$GPRMC,172500.10,A,5746.8269682,N,01246.2975619,E,31.14,264.32,040716,0.0,E,D*0D
$GPGGA,172500.10,5746.8269682,N,01246.2975619,E,5,05,1.0,193.749,M,35.049,M,0.9,*4E
$GPGSA,A,3,08,10,11,18,27,,,,,,,,4.4,2.5,3.6,1*28
$GPGSV,2,1,05,08,68,263,49,10,64,103,50,11,29,275,41,18,37,062,48,1*61
$GPGSV,2,2,05,27,61,164,49,,,,,,,,,,,,,1*5D
$GPRMC,172500.20,A,5746.8268806,N,01246.2959924,E,26.58,264.64,040716,0.0,E,D*0F
