$GPRMC,115914.000,A,5746.685,N,01246.797,E,0.34,156.72,250416,,*0D
$GPGGA,115914.000,5746.6852147,N,1246.7966474,E,1,00,0.0,191.000,M,0.0,M,,*5F
$GPVTG,156.720,T,0,M,0.340,N,0.630,K*55
$GPGSA,A,3,,,,,,,,,,,,,0.0,0.0,0.0*32
$GPRMC,115915.000,A,5746.685,N,01246.797,E,3.73,145.67,250416,,*0A
$GPGGA,115915.000,5746.6852091,N,1246.7966477,E,1,00,0.0,191.000,M,0.0,M,,*57
$GPVTG,145.670,T,0,M,3.730,N,6.908,K*51
$GPGSA,A,3,,,,,,,,,,,,,0.0,0.0,0.0*32
$GPRMC,115916.000,A,5746.685,N,01246.797,E,1.86,207.80,250416,,*0D
$GPGGA,115916.000,5746.6852018,N,1246.7966503,E,1,00,0.0,191.000,M,0.0,M,,*57
$GPVTG,207.800,T,0,M,1.860,N,3.445,K*54
$GPGSA,A,3,,,,,,,,,,,,,0.0,0.0,0.0*32
$GPRMC,115917.000,A,5746.685,N,01246.797,E,3.92,234.75,250416,,*01
$GPGGA,115917.000,5746.6851943,N,1246.7966503,E,1,00,0.0,191.000,M,0.0,M,,*52
$GPVTG,234.750,T,0,M,3.921,N,7.261,K*5C
$GPGSA,A,3,,,,,,,,,,,,,0.0,0.0,0.0*32
$GPRMC,115918.000,A,5746.685,N,01246.796,E,4.63,269.90,250416,,*05
$GPGGA,115918.000,5746.6850407,N,1246.7962317,E,1,00,0.0,191.000,M,0.0,M,,*56
$GPVTG,269.900,T,0,M,4.630,N,8.575,K*5A
$GPGSA,A,3,,,,,,,,,,,,,0.0,0.0,0.0*32
$GPRMC,115919.000,A,5746.685,N,01246.795,E,3.60,256.97,250416,,*08
$GPGGA,115919.000,5746.6846627,N,1246.7954705,E,1,00,0.0,191.000,M,0.0,M,,*52
$GPVTG,256.970,T,0,M,3.600,N,6.667,K*5B
$GPGSA,A,3,,,,,,,,,,,,,0.0,0.0,0.0*32
$GPRMC,115920.000,A,5746.684,N,01246.795,E,6.49,202.95,250416,,*0E
$GPGGA,115920.000,5746.6842156,N,1246.7948572,E,1,00,0.0,191.000,M,0.0,M,,*52
$GPVTG,202.950,T,0,M,6.490,N,12.020,K*66
$GPGSA,A,3,,,,,,,,,,,,,0.0,0.0,0.0*32
$GPRMC,115921.000,A,5746.684,N,01246.794,E,5.15,257.22,250416,,*08
$GPGGA,115921.000,5746.6837014,N,1246.7944551,E,1,00,0.0,191.000,M,0.0,M,,*5B
$GPVTG,257.220,T,0,M,5.149,N,9.536,K*50
$GPGSA,A,3,,,,,,,,,,,,,0.0,0.0,0.0*32
$GPRMC,115922.000,A,5746.683,N,01246.794,E,2.74,218.42,250416,,*01
$GPGGA,115922.000,5746.6831532,N,1246.7942603,E,1,00,0.0,191.000,M,0.0,M,,*5D
$GPVTG,218.420,T,0,M,2.741,N,5.076,K*59
$GPGSA,A,3,,,,,,,,,,,,,0.0,0.0,0.0*32
$GPRMC,115923.000,A,5746.683,N,01246.794,E,1.54,158.25,250416,,*07
$GPGGA,115923.000,5746.6825924,N,1246.7943080,E,1,00,0.0,191.000,M,0.0,M,,*5E
$GPVTG,158.250,T,0,M,1.540,N,2.851,K*55
$GPGSA,A,3,,,,,,,,,,,,,0.0,0.0,0.0*32
$GPRMC,115924.000,A,5746.682,N,01246.795,E,4.14,153.43,250416,,*0A
$GPGGA,115924.000,5746.6820679,N,1246.7945702,E,1,00,0.0,191.000,M,0.0,M,,*50
$GPVTG,153.430,T,0,M,4.140,N,7.668,K*5E
$GPGSA,A,3,,,,,,,,,,,,,0.0,0.0,0.0*32
$GPRMC,115925.000,A,5746.682,N,01246.795,E,1.35,149.43,250416,,*06
$GPGGA,115925.000,5746.6815734,N,1246.7950523,E,1,00,0.0,191.000,M,0.0,M,,*5A
$GPVTG,149.430,T,0,M,1.349,N,2.498,K*53
$GPGSA,A,3,,,,,,,,,,,,,0.0,0.0,0.0*32
$GPRMC,115926.000,A,5746.681,N,01246.796,E,3.09,86.99,250416,,*3D
$GPGGA,115926.000,5746.6811483,N,1246.7957323,E,1,00,0.0,191.000,M,0.0,M,,*53
$GPVTG,86.990,T,0,M,3.091,N,5.724,K*61
$GPGSA,A,3,,,,,,,,,,,,,0.0,0.0,0.0*32
$GPRMC,115927.000,A,5746.681,N,01246.797,E,1.98,145.10,250416,,*08
$GPGGA,115927.000,5746.6808128,N,1246.7965557,E,1,00,0.0,191.000,M,0.0,M,,*5A
$GPVTG,145.100,T,0,M,1.981,N,3.668,K*5B
$GPGSA,A,3,,,,,,,,,,,,,0.0,0.0,0.0*32
$GPRMC,115928.000,A,5746.681,N,01246.798,E,3.87,79.88,250416,,*3B
$GPGGA,115928.000,5746.6805876,N,1246.7975009,E,1,00,0.0,191.000,M,0.0,M,,*55
$GPVTG,79.880,T,0,M,3.870,N,7.168,K*6A
$GPGSA,A,3,,,,,,,,,,,,,0.0,0.0,0.0*32
$GPRMC,115929.000,A,5746.680,N,01246.799,E,4.46,347.54,250416,,*0F
$GPGGA,115929.000,5746.6804645,N,1246.7985199,E,1,00,0.0,191.000,M,0.0,M,,*5C
$GPVTG,347.540,T,0,M,4.459,N,8.258,K*5A
$GPGSA,A,3,,,,,,,,,,,,,0.0,0.0,0.0*32
$GPRMC,115930.000,A,5746.680,N,01246.800,E,6.08,82.58,250416,,*36
$GPGGA,115930.000,5746.6804788,N,1246.7995534,E,1,00,0.0,191.000,M,0.0,M,,*56
$GPVTG,82.580,T,0,M,6.080,N,11.261,K*5C
$GPGSA,A,3,,,,,,,,,,,,,0.0,0.0,0.0*32
$GPRMC,115931.000,A,5746.681,N,01246.801,E,3.69,34.28,250416,,*3F
$GPGGA,115931.000,5746.6806329,N,1246.8007667,E,1,00,0.0,191.000,M,0.0,M,,*52
$GPVTG,34.280,T,0,M,3.689,N,6.833,K*67
$GPGSA,A,3,,,,,,,,,,,,,0.0,0.0,0.0*32
$GPRMC,115932.000,A,5746.681,N,01246.802,E,1.94,25.46,250416,,*37
$GPGGA,115932.000,5746.6808328,N,1246.8015049,E,1,00,0.0,191.000,M,0.0,M,,*57
$GPVTG,25.460,T,0,M,1.940,N,3.593,K*65
$GPGSA,A,3,,,,,,,,,,,,,0.0,0.0,0.0*32
$GPRMC,115933.000,A,5746.681,N,01246.802,E,5.30,97.75,250416,,*35
$GPGGA,115933.000,5746.6812063,N,1246.8024095,E,1,00,0.0,191.000,M,0.0,M,,*52
$GPVTG,97.750,T,0,M,5.301,N,9.817,K*6C
$GPGSA,A,3,,,,,,,,,,,,,0.0,0.0,0.0*32
$GPRMC,115934.000,A,5746.682,N,01246.803,E,8.99,54.52,250416,,*34
$GPGGA,115934.000,5746.6815970,N,1246.8029972,E,1,00,0.0,191.000,M,0.0,M,,*54
$GPVTG,54.520,T,0,M,8.990,N,16.650,K*5A
$GPGSA,A,3,,,,,,,,,,,,,0.0,0.0,0.0*32
$GPRMC,115935.000,A,5746.682,N,01246.803,E,5.53,88.82,250416,,*32
$GPGGA,115935.000,5746.6820858,N,1246.8034887,E,1,00,0.0,191.000,M,0.0,M,,*5F
$GPVTG,88.820,T,0,M,5.530,N,10.242,K*5C
$GPGSA,A,3,,,,,,,,,,,,,0.0,0.0,0.0*32
$GPRMC,115936.000,A,5746.683,N,01246.804,E,3.43,355.31,250416,,*0B
$GPGGA,115936.000,5746.6827887,N,1246.8038042,E,1,00,0.0,191.000,M,0.0,M,,*54
$GPVTG,355.310,T,0,M,3.431,N,6.354,K*50
$GPGSA,A,3,,,,,,,,,,,,,0.0,0.0,0.0*32
$GPRMC,115937.000,A,5746.683,N,01246.804,E,4.50,73.13,250416,,*38
$GPGGA,115937.000,5746.6831779,N,1246.8038249,E,1,00,0.0,191.000,M,0.0,M,,*55
$GPVTG,73.130,T,0,M,4.500,N,8.334,K*6B
$GPGSA,A,3,,,,,,,,,,,,,0.0,0.0,0.0*32
$GPRMC,115938.000,A,5746.684,N,01246.804,E,2.47,8.63,250416,,*0B
$GPGGA,115938.000,5746.6837263,N,1246.8036619,E,1,00,0.0,191.000,M,0.0,M,,*5D
$GPVTG,8.630,T,0,M,2.471,N,4.576,K*5D
$GPGSA,A,3,,,,,,,,,,,,,0.0,0.0,0.0*32
$GPRMC,115939.000,A,5746.684,N,01246.803,E,1.77,352.37,250416,,*00
$GPGGA,115939.000,5746.6844379,N,1246.8030656,E,1,00,0.0,191.000,M,0.0,M,,*5F
$GPVTG,352.370,T,0,M,1.771,N,3.280,K*59
$GPGSA,A,3,,,,,,,,,,,,,0.0,0.0,0.0*32
$GPRMC,115940.000,A,5746.685,N,01246.803,E,4.65,311.01,250416,,*0B
$GPGGA,115940.000,5746.6848291,N,1246.8025066,E,1,00,0.0,191.000,M,0.0,M,,*5B
$GPVTG,311.010,T,0,M,4.650,N,8.611,K*5B
$GPGSA,A,3,,,,,,,,,,,,,0.0,0.0,0.0*32
$GPRMC,115941.000,A,5746.685,N,01246.802,E,2.51,274.01,250416,,*08
$GPGGA,115941.000,5746.6850874,N,1246.8019776,E,1,00,0.0,191.000,M,0.0,M,,*5B
$GPVTG,274.010,T,0,M,2.510,N,4.648,K*58
$GPGSA,A,3,,,,,,,,,,,,,0.0,0.0,0.0*32
$GPRMC,115942.000,A,5746.685,N,01246.801,E,3.15,305.48,250416,,*03
$GPGGA,115942.000,5746.6853743,N,1246.8010699,E,1,00,0.0,191.000,M,0.0,M,,*59
$GPVTG,305.480,T,0,M,3.149,N,5.832,K*59
$GPGSA,A,3,,,,,,,,,,,,,0.0,0.0,0.0*32
$GPRMC,115943.000,A,5746.686,N,01246.800,E,4.60,252.96,250416,,*05
$GPGGA,115943.000,5746.6855476,N,1246.8000898,E,1,00,0.0,191.000,M,0.0,M,,*55
$GPVTG,252.960,T,0,M,4.599,N,8.518,K*5F
$GPGSA,A,3,,,,,,,,,,,,,0.0,0.0,0.0*32
$GPRMC,115944.000,A,5746.686,N,01246.799,E,3.76,300.78,250416,,*0B
$GPGGA,115944.000,5746.6856041,N,1246.7989549,E,1,00,0.0,191.000,M,0.0,M,,*57
$GPVTG,300.780,T,0,M,3.759,N,6.962,K*5F
$GPGSA,A,3,,,,,,,,,,,,,0.0,0.0,0.0*32
$GPRMC,115945.000,A,5746.686,N,01246.798,E,10.16,338.98,250416,,*3A
$GPGGA,115945.000,5746.6855479,N,1246.7981509,E,1,00,0.0,191.000,M,0.0,M,,*56
$GPVTG,338.980,T,0,M,10.160,N,18.817,K*58
$GPGSA,A,3,,,,,,,,,,,,,0.0,0.0,0.0*32
$GPRMC,115946.000,A,5746.686,N,01246.798,E,4.81,161.02,250416,,*0F
$GPGGA,115946.000,5746.6855423,N,1246.7981624,E,1,00,0.0,191.000,M,0.0,M,,*56
$GPVTG,161.020,T,0,M,4.809,N,8.906,K*56
$GPGSA,A,3,,,,,,,,,,,,,0.0,0.0,0.0*32
$GPRMC,115947.000,A,5746.686,N,01246.798,E,8.03,346.47,250416,,*0E
$GPGGA,115947.000,5746.6855395,N,1246.7981675,E,1,00,0.0,191.000,M,0.0,M,,*59
$GPVTG,346.470,T,0,M,8.030,N,14.872,K*61
$GPGSA,A,3,,,,,,,,,,,,,0.0,0.0,0.0*32
$GPRMC,115948.000,A,5746.686,N,01246.798,E,3.23,217.33,250416,,*0E
$GPGGA,115948.000,5746.6855332,N,1246.7981711,E,1,00,0.0,191.000,M,0.0,M,,*58
$GPVTG,217.330,T,0,M,3.231,N,5.983,K*50
$GPGSA,A,3,,,,,,,,,,,,,0.0,0.0,0.0*32
$GPRMC,115949.000,A,5746.686,N,01246.798,E,9.02,346.84,250416,,*0F
$GPGGA,115949.000,5746.6855312,N,1246.7981720,E,1,00,0.0,191.000,M,0.0,M,,*59
$GPVTG,346.840,T,0,M,9.019,N,16.704,K*68
$GPGSA,A,3,,,,,,,,,,,,,0.0,0.0,0.0*32
